commune,insee,departement,latitude,longitude,altitude_moy,statut,superficie,departement_nom,emplois,habitants,menages,pers_par_menages,unite_conso_menages,revenu_median,2015,2015_inter_voiture,2015_extra_voiture,2015_sansvoiture,2015_extra_csp1,2015_extra_csp2,2015_extra_csp3,2015_inter_csp1,2015_inter_csp2,2015_inter_csp3,2009_inter,2009_extra,2009,2009_extra_communes,2009_intra_communes,2009_extra_km,2009_intra_km,2009_extra_heure,2009_intra_heure,2014_inter,2014_extra,2014,2014_extra_communes,2014_intra_communes,2014_extra_km,2014_intra_km,2014_extra_heure,2014_intra_heure
AIGUES JUNTES,9001,9,43.04981745,1.474525247,447,Commune simple,771,ARIEGE,0,58,0,0,0,0,40,5,30,5,5,15,10,5,5,0,8,11,19,,,,,,,9,27,36,,,,,,
AIGUES VIVES,9002,9,42.99935302,1.87792858,440,Commune simple,522,ARIEGE,12,632,254,635,425,19642,265,20,210,35,40,80,105,15,5,20,16,209,225,,,,,,,39,219,258,,,,,,
L'AIGUILLON,9003,9,42.91062597,1.900916207,592,Commune simple,647,ARIEGE,6,408,189,407,291,17763,135,10,115,10,15,25,85,0,5,5,24,100,124,,,,,,,10,121,131,,,,,,
ALBIES,9004,9,42.75439667,1.698091793,1169,Commune simple,779,ARIEGE,2,132,63,131,93,20692,61,0,51,10,10,15,25,10,0,0,4,29,33,,,,,,,11,53,63,,,,,,
ALEU,9005,9,42.89372728,1.267919706,759,Commune simple,1411,ARIEGE,4,122,69,116,91,15123,27,8,4,16,0,0,8,0,16,4,33,21,54,,,,,,,20,8,27,,,,,,
ALLIAT,9006,9,42.81560874,1.581409832,822,Commune simple,345,ARIEGE,2,55,0,0,0,0,20,0,15,5,0,10,10,0,0,0,4,4,8,,,,,,,0,20,20,,,,,,
ALLIERES,9007,9,43.03828279,1.363928733,496,Commune simple,913,ARIEGE,0,71,0,0,0,0,35,10,20,5,10,10,0,0,5,10,12,8,20,,,,,,,15,20,35,,,,,,
ALOS,9008,9,42.89824328,1.129656436,1042,Commune simple,2385,ARIEGE,1,112,56,96,75,13491,50,35,15,0,0,5,10,0,15,20,28,12,40,,,,,,,35,15,50,,,,,,
ALZEN,9009,9,42.98122279,1.454295795,728,Commune simple,1794,ARIEGE,28,237,90,224,147,12451,87,39,24,24,10,15,5,5,55,0,42,72,114,,,,,,,57,28,85,,,,,,
ANTRAS,9011,9,42.87390471,0.904038477,1427,Commune simple,2020,ARIEGE,1,61,0,0,0,0,10,5,5,0,0,5,0,0,5,0,22,9,30,,,,,,,5,5,10,,,,,,
APPY,9012,9,42.80433252,1.742096333,1519,Commune simple,614,ARIEGE,0,29,0,0,0,0,16,0,16,0,0,10,5,0,0,0,4,11,15,,,,,,,0,18,18,,,,,,
ARABAUX,9013,9,42.98042246,1.633681328,493,Commune simple,460,ARIEGE,0,60,0,0,0,0,23,0,18,5,0,15,10,0,0,0,14,36,50,,,,,,,0,21,21,,,,,,
ARGEIN,9014,9,42.92398073,0.990511438,784,Commune simple,1112,ARIEGE,7,196,89,183,130,16870,45,15,30,0,5,5,20,5,5,5,12,52,64,,,,,,,15,30,45,,,,,,
ARIGNAC,9015,9,42.87542409,1.595156621,763,Commune simple,866,ARIEGE,29,724,311,727,497,20123,232,35,192,5,20,70,100,15,10,15,24,271,295,,,,,,,41,194,235,,,,,,
ARNAVE,9016,9,42.8527499,1.646381471,775,Commune simple,838,ARIEGE,6,205,85,209,140,20145,88,5,78,5,0,5,74,0,0,10,8,76,84,,,,,,,10,79,89,,,,,,
ARRIEN EN BETHMALE,9017,9,42.88675277,1.054902011,1121,Commune simple,1444,ARIEGE,3,108,0,0,0,0,33,8,21,4,0,16,4,0,12,0,16,16,32,,,,,,,12,20,32,,,,,,
ARROUT,9018,9,42.94677529,1.018671858,672,Commune simple,301,ARIEGE,5,80,0,0,0,0,20,5,15,0,0,15,0,0,5,0,20,20,40,,,,,,,5,15,20,,,,,,
ARTIGAT,9019,9,43.14304333,1.447100069,313,Commune simple,2413,ARIEGE,16,569,238,540,372,17502,218,45,119,55,10,49,75,5,65,15,64,156,220,,,,,,,85,134,219,,,,,,
ARTIGUES,9020,9,42.68855021,2.036534997,1765,Commune simple,1246,ARIEGE,1,52,0,0,0,0,10,5,5,0,0,0,5,5,0,0,13,9,22,,,,,,,5,5,10,,,,,,
ARTIX,9021,9,43.06612098,1.562752986,474,Commune simple,745,ARIEGE,1,143,52,144,92,17628,57,21,21,16,0,5,30,0,15,5,4,40,44,,,,,,,20,35,55,,,,,,
ARVIGNA,9022,9,43.05868786,1.728296358,350,Commune simple,867,ARIEGE,5,237,90,225,148,20733,102,15,61,26,25,25,25,0,15,10,18,73,92,,,,,,,26,78,104,,,,,,
ASCOU,9023,9,42.7189926,1.9315877,1603,Commune simple,3581,ARIEGE,26,158,59,126,88,16697,60,24,24,12,6,12,6,6,12,18,12,33,46,,,,,,,50,21,70,,,,,,
ASTON,9024,9,42.68116161,1.65903402,1792,Commune simple,15425,ARIEGE,43,225,99,211,150,18837,130,20,75,34,5,20,60,5,19,20,36,64,100,,,,,,,44,85,129,,,,,,
AUCAZEIN,9025,9,42.92207666,0.966786491,852,Commune simple,606,ARIEGE,2,64,0,0,0,0,26,16,11,0,5,0,5,0,10,5,12,17,29,,,,,,,4,24,28,,,,,,
AUDRESSEIN,9026,9,42.92958823,1.019418145,606,Commune simple,405,ARIEGE,4,132,71,143,104,17671,50,10,25,15,0,15,10,15,10,0,8,44,52,,,,,,,24,24,47,,,,,,
AUGIREIN,9027,9,42.91045903,0.917479738,1009,Commune simple,971,ARIEGE,1,72,0,0,0,0,20,10,0,10,0,0,0,0,20,0,8,12,20,,,,,,,19,0,19,,,,,,
AULOS,9028,9,42.79145451,1.671861231,621,Commune simple,107,ARIEGE,7,56,0,0,0,0,20,0,20,0,0,0,20,0,0,0,0,16,16,,,,,,,0,21,21,,,,,,
AULUS LES BAINS,9029,9,42.76688757,1.356204928,1578,Commune simple,5292,ARIEGE,8,154,65,130,95,17080,55,8,0,47,0,0,0,24,12,20,38,26,64,,,,,,,56,0,56,,,,,,
AUZAT,9030,9,42.70217433,1.443268883,1941,Commune simple,16309,ARIEGE,71,544,230,475,340,17078,168,68,47,53,10,5,46,0,42,64,95,83,178,,,,,,,110,66,176,,,,,,
AXIAT,9031,9,42.79951392,1.76001181,1513,Commune simple,964,ARIEGE,1,42,0,0,0,0,17,0,8,8,0,4,4,0,8,0,12,4,15,,,,,,,8,8,17,,,,,,
AX LES THERMES,9032,9,42.68736975,1.81825474,1462,Commune simple,3016,ARIEGE,430,1244,611,1160,860,19295,562,158,148,257,25,70,83,49,129,209,416,148,564,,,,,,,387,180,567,,,,,,
BAGERT,9033,9,43.07942367,1.069683475,452,Commune simple,331,ARIEGE,1,41,0,0,0,0,11,4,4,4,0,4,0,0,8,0,4,24,28,,,,,,,7,4,11,,,,,,
BALACET,9034,9,42.88837209,0.982806933,1125,Commune simple,214,ARIEGE,0,21,0,0,0,0,10,0,10,0,0,10,0,0,0,0,0,0,0,,,,,,,0,9,9,,,,,,
BALAGUERES,9035,9,42.96696178,1.017377546,817,Commune simple,1808,ARIEGE,3,199,102,190,143,17315,79,16,63,0,0,16,48,0,12,4,16,57,74,,,,,,,16,64,80,,,,,,
BARJAC,9037,9,43.06172315,1.134629381,497,Commune simple,276,ARIEGE,0,40,0,0,0,0,21,5,15,0,0,5,10,0,5,0,8,4,12,,,,,,,5,15,20,,,,,,
LA BASTIDE DE BESPLAS,9038,9,43.16963859,1.27404991,279,Commune simple,1036,ARIEGE,5,378,152,348,238,17345,140,25,60,55,5,30,50,20,15,20,32,116,148,,,,,,,55,85,140,,,,,,
LA BASTIDE DE BOUSIGNAC,9039,9,43.0580887,1.884083751,367,Commune simple,1262,ARIEGE,38,339,142,328,225,17737,127,20,90,16,8,24,63,12,16,4,16,106,122,,,,,,,32,96,128,,,,,,
LA BASTIDE DE LORDAT,9040,9,43.13972519,1.71422376,273,Commune simple,600,ARIEGE,10,281,115,293,192,19903,152,21,124,8,12,65,52,0,8,12,40,100,140,,,,,,,21,131,152,,,,,,
LA BASTIDE DU SALAT,9041,9,43.0625363,1.000911728,371,Commune simple,673,ARIEGE,5,182,87,166,123,19573,68,5,63,0,0,25,40,0,0,5,4,48,52,,,,,,,5,65,70,,,,,,
LA BASTIDE DE SEROU,9042,9,43.0244922,1.427134043,480,Commune simple,4138,ARIEGE,143,960,429,927,650,17633,335,80,140,115,30,50,70,10,115,60,187,144,331,,,,,,,186,151,336,,,,,,
LA BASTIDE SUR L'HERS,9043,9,42.95098132,1.898792337,490,Commune simple,481,ARIEGE,40,715,331,658,480,17800,170,15,149,5,20,55,70,0,5,15,75,166,241,,,,,,,21,153,174,,,,,,
BAULOU,9044,9,43.01797868,1.542921374,505,Commune simple,1473,ARIEGE,7,165,69,164,112,18938,70,0,70,0,5,30,35,0,0,0,20,67,87,,,,,,,0,70,70,,,,,,
BEDEILHAC ET AYNAT,9045,9,42.8796539,1.566846001,856,Commune simple,659,ARIEGE,19,190,84,187,130,20184,73,10,63,0,19,15,30,0,10,0,12,72,84,,,,,,,10,64,74,,,,,,
BEDEILLE,9046,9,43.0842164,1.100275983,432,Commune simple,957,ARIEGE,2,75,0,0,0,0,10,0,10,0,0,0,10,0,0,0,26,13,38,,,,,,,8,23,31,,,,,,
BELESTA,9047,9,42.89361904,1.953595689,756,Commune simple,2689,ARIEGE,61,1011,510,1031,749,18198,325,79,212,35,35,65,120,10,50,50,130,284,414,1,,2948,,76,,80,262,341,1,,2732,,70,
BELLOC,9048,9,43.00772542,1.93348875,403,Commune simple,972,ARIEGE,1,66,0,0,0,0,19,0,9,9,0,5,5,0,10,0,12,24,37,,,,,,,9,9,18,,,,,,
BENAC,9049,9,42.95943703,1.530874886,537,Commune simple,280,ARIEGE,9,176,78,168,118,20432,70,10,50,10,0,20,30,10,5,5,8,70,78,,,,,,,20,49,69,,,,,,
BENAGUES,9050,9,43.07810669,1.609341997,354,Commune simple,310,ARIEGE,91,482,183,474,310,21178,209,10,185,14,15,53,134,0,5,5,29,129,158,,,,,,,24,163,187,,,,,,
BENAIX,9051,9,42.89491775,1.850465399,726,Commune simple,1470,ARIEGE,1,144,69,151,107,17443,85,5,75,5,10,35,30,5,5,0,8,64,72,,,,,,,10,75,85,,,,,,
BESSET,9052,9,43.07247872,1.847544735,335,Commune simple,820,ARIEGE,6,166,69,169,114,19738,40,5,20,15,15,0,15,0,10,0,16,48,64,,,,,,,10,30,40,,,,,,
BESTIAC,9053,9,42.78513849,1.799855825,1338,Commune simple,646,ARIEGE,1,19,0,0,0,0,15,5,10,0,0,5,5,0,5,0,5,10,14,,,,,,,8,4,11,,,,,,
BETCHAT,9054,9,43.08556194,1.028126058,399,Commune simple,2232,ARIEGE,6,313,154,311,225,19262,86,7,68,11,16,37,17,0,11,4,4,95,99,,,,,,,16,75,90,,,,,,
BETHMALE,9055,9,42.85437849,1.07741744,1543,Commune simple,3190,ARIEGE,23,97,50,91,69,19367,47,20,16,12,0,12,12,0,16,8,8,16,24,,,,,,,24,24,48,,,,,,
BEZAC,9056,9,43.15319311,1.574010925,312,Commune simple,831,ARIEGE,4,338,143,363,241,21532,185,25,145,15,15,45,90,0,30,5,8,112,119,,,,,,,34,144,178,,,,,,
BIERT,9057,9,42.90452728,1.309226279,881,Commune simple,2376,ARIEGE,6,310,146,270,201,12719,68,24,40,4,4,8,28,4,12,12,36,68,104,,,,,,,28,40,68,,,,,,
BOMPAS,9058,9,42.86297362,1.619667085,601,Commune simple,282,ARIEGE,18,203,98,202,145,20388,59,0,51,8,0,20,32,0,0,8,12,60,72,,,,,,,8,51,59,,,,,,
BONAC IRAZEIN,9059,9,42.84046033,0.983114085,1350,Commune simple,3817,ARIEGE,3,125,61,103,81,15357,30,10,10,10,0,5,5,10,5,5,40,20,60,,,,,,,21,10,31,,,,,,
BONNAC,9060,9,43.17201853,1.588759075,306,Commune simple,977,ARIEGE,12,722,312,752,508,19033,280,45,210,25,25,65,140,5,10,35,36,248,284,,,,,,,50,230,280,,,,,,
LES BORDES SUR ARIZE,9061,9,43.11397148,1.367201229,329,Commune simple,1282,ARIEGE,41,513,226,465,331,15227,125,20,80,25,5,50,35,10,15,10,61,101,162,,,,,,,35,90,125,,,,,,
LES BORDES SUR LEZ,9062,9,42.83494724,1.034094398,1451,Commune simple,4948,ARIEGE,13,165,83,146,111,19547,45,5,25,15,5,10,10,0,15,5,8,39,47,,,,,,,15,25,40,,,,,,
LE BOSC,9063,9,42.93358386,1.44656026,1099,Commune simple,2547,ARIEGE,3,103,51,90,69,13364,20,0,15,5,0,5,10,0,0,5,12,20,31,,,,,,,5,15,20,,,,,,
BOUAN,9064,9,42.79248371,1.642979115,841,Commune simple,342,ARIEGE,1,35,0,0,0,0,21,0,21,0,0,10,10,0,0,0,8,8,16,,,,,,,0,20,20,,,,,,
BOUSSENAC,9065,9,42.90827371,1.391531798,1129,Commune simple,2633,ARIEGE,5,194,99,186,138,14693,72,24,24,24,0,20,5,15,25,10,31,31,63,,,,,,,46,23,69,,,,,,
BRASSAC,9066,9,42.93230241,1.511891478,950,Commune simple,2453,ARIEGE,8,644,285,633,438,19622,303,58,215,30,20,120,95,15,20,34,48,240,288,,,,,,,69,235,304,,,,,,
BRIE,9067,9,43.20624073,1.516927287,302,Commune simple,720,ARIEGE,12,208,77,222,141,21276,120,15,80,25,25,30,40,0,20,5,34,69,103,,,,,,,24,92,116,,,,,,
BURRET,9068,9,42.95616429,1.472113118,819,Commune simple,495,ARIEGE,0,41,0,0,0,0,10,5,5,0,5,0,0,0,5,0,11,11,23,,,,,,,5,5,11,,,,,,
BUZAN,9069,9,42.95761246,0.960771919,946,Commune simple,863,ARIEGE,0,28,0,0,0,0,10,0,0,10,0,0,0,5,5,0,7,0,7,,,,,,,8,4,12,,,,,,
LES CABANNES,9070,9,42.78383603,1.687448733,539,Commune simple,89,ARIEGE,45,340,168,327,241,20752,127,9,67,51,10,30,43,5,30,10,68,72,140,,,,,,,45,85,130,,,,,,
CADARCET,9071,9,43.01205097,1.501691562,541,Commune simple,1106,ARIEGE,16,233,102,214,153,19053,126,15,97,15,20,29,49,5,25,0,12,84,96,,,,,,,30,98,128,,,,,,
CALZAN,9072,9,43.0320972,1.740270905,449,Commune simple,406,ARIEGE,0,29,0,0,0,0,24,0,24,0,0,5,20,0,0,0,9,13,22,,,,,,,0,23,23,,,,,,
CAMARADE,9073,9,43.06923156,1.276499823,535,Commune simple,2805,ARIEGE,2,180,70,163,111,17071,65,10,30,25,0,10,20,0,25,10,34,45,78,,,,,,,35,30,66,,,,,,
CAMON,9074,9,43.02186238,1.961145421,403,Commune simple,1031,ARIEGE,11,145,63,130,92,17745,49,5,25,20,5,15,10,0,5,15,40,56,96,,,,,,,20,30,50,,,,,,
CAMPAGNE SUR ARIZE,9075,9,43.12022701,1.321761188,336,Commune simple,1341,ARIEGE,12,267,135,261,192,17143,93,19,65,10,0,10,55,0,29,0,32,48,80,,,,,,,29,65,94,,,,,,
CANTE,9076,9,43.24707703,1.521456866,263,Commune simple,975,ARIEGE,10,212,85,224,146,18761,91,12,75,4,20,24,36,4,8,0,29,45,74,,,,,,,12,81,93,,,,,,
CAPOULET ET JUNAC,9077,9,42.79224307,1.577069689,658,Commune simple,285,ARIEGE,6,174,85,164,122,20118,100,10,85,5,0,30,60,0,0,10,8,67,75,,,,,,,10,92,102,,,,,,
CARCANIERES,9078,9,42.70809116,2.123736124,1157,Commune simple,648,ARIEGE,3,80,0,0,0,0,29,0,5,24,0,5,0,0,24,0,21,4,25,,,,,,,22,6,28,,,,,,
CARLA BAYLE,9079,9,43.1580209,1.372800247,316,Commune simple,3602,ARIEGE,62,773,267,606,417,16784,265,59,157,49,15,117,45,20,40,30,112,144,256,,,,,,,90,177,267,,,,,,
CARLA DE ROQUEFORT,9080,9,42.97546778,1.761790942,471,Commune simple,956,ARIEGE,8,161,64,153,104,19422,75,15,45,15,5,10,30,0,15,15,21,37,57,,,,,,,29,44,74,,,,,,
LE CARLARET,9081,9,43.13048668,1.695013141,293,Commune simple,951,ARIEGE,4,275,97,271,170,19058,139,25,105,8,24,33,49,4,20,4,13,70,83,,,,,,,29,107,135,,,,,,
CASTELNAU DURBAN,9082,9,42.99354558,1.339043435,529,Commune simple,1316,ARIEGE,32,450,230,454,329,16046,187,55,87,44,0,24,72,32,28,32,53,89,142,,,,,,,92,96,188,,,,,,
CASTERAS,9083,9,43.12569909,1.405680749,369,Commune simple,184,ARIEGE,1,30,0,0,0,0,23,12,12,0,0,0,12,0,12,0,16,0,16,,,,,,,4,0,4,,,,,,
CASTEX,9084,9,43.1658554,1.319564139,325,Commune simple,716,ARIEGE,1,92,0,0,0,0,30,5,0,25,0,0,0,5,20,5,12,36,48,,,,,,,30,0,30,,,,,,
CASTILLON EN COUSERANS,9085,9,42.91735785,1.054268218,901,Commune simple,506,ARIEGE,37,419,185,337,253,17966,106,0,46,60,5,35,15,5,20,23,50,66,116,,,,,,,49,58,107,,,,,,
CAUMONT,9086,9,43.02374325,1.078454717,407,Commune simple,934,ARIEGE,39,312,143,319,223,17430,147,59,88,0,10,15,65,0,25,35,12,115,127,,,,,,,58,87,144,,,,,,
CAUSSOU,9087,9,42.77269669,1.82219209,1291,Commune simple,1583,ARIEGE,1,63,0,0,0,0,30,9,17,4,0,8,12,0,8,0,0,12,12,,,,,,,8,21,29,,,,,,
CAYCHAX,9088,9,42.80730366,1.728289499,1357,Commune simple,565,ARIEGE,1,13,0,0,0,0,10,0,5,5,5,0,0,5,0,0,0,0,0,,,,,,,5,5,9,,,,,,
CAZALS DES BAYLES,9089,9,43.09295618,1.939354306,351,Commune simple,470,ARIEGE,2,54,0,0,0,0,25,0,13,13,16,4,0,0,4,0,4,22,26,,,,,,,4,21,25,,,,,,
CAZAUX,9090,9,43.05271302,1.519778097,464,Commune simple,738,ARIEGE,0,48,0,0,0,0,29,6,12,12,0,6,6,0,18,0,4,8,12,,,,,,,13,4,17,,,,,,
CAZAVET,9091,9,42.99790066,1.035228809,579,Commune simple,1815,ARIEGE,1,225,103,223,156,18047,111,25,81,5,15,30,35,10,15,5,12,96,108,,,,,,,30,80,110,,,,,,
CAZENAVE SERRES ET ALLENS,9092,9,42.8419062,1.690750973,1360,Commune simple,1637,ARIEGE,2,46,0,0,0,0,20,5,15,0,0,0,15,0,5,0,4,20,24,,,,,,,5,15,20,,,,,,
CELLES,9093,9,42.91683078,1.696791778,654,Commune simple,1039,ARIEGE,1,129,58,124,87,17541,33,0,33,0,5,10,20,0,0,0,12,39,51,,,,,,,0,32,32,,,,,,
CERIZOLS,9094,9,43.12003829,1.068154168,395,Commune simple,1449,ARIEGE,4,150,66,141,102,20360,46,10,31,5,0,20,10,0,10,5,31,51,82,,,,,,,16,31,47,,,,,,
CESCAU,9095,9,42.92947207,1.048985445,706,Commune simple,537,ARIEGE,12,136,62,124,89,19934,68,11,46,11,8,27,23,4,8,0,0,52,52,,,,,,,12,58,70,,,,,,
CHATEAU VERDUN,9096,9,42.78155656,1.67722743,590,Commune simple,82,ARIEGE,1,36,0,0,0,0,5,0,5,0,0,5,0,0,0,0,4,25,29,,,,,,,0,4,4,,,,,,
CLERMONT,9097,9,43.03687034,1.289075282,439,Commune simple,746,ARIEGE,2,108,0,0,0,0,58,10,44,5,5,10,30,0,10,5,0,40,40,,,,,,,14,43,57,,,,,,
CONTRAZY,9098,9,43.05838045,1.206050323,518,Commune simple,847,ARIEGE,2,74,0,0,0,0,37,4,33,0,0,20,12,0,0,4,15,18,33,,,,,,,4,33,37,,,,,,
COS,9099,9,42.97948556,1.568947728,549,Commune simple,654,ARIEGE,7,406,166,406,275,24590,208,30,168,10,40,65,65,10,25,0,12,163,175,,,,,,,36,175,211,,,,,,
COUFLENS,9100,9,42.75341342,1.182816593,1544,Commune simple,5645,ARIEGE,2,81,0,0,0,0,20,10,10,0,5,5,0,5,5,0,20,12,33,,,,,,,10,10,19,,,,,,
COUSSA,9101,9,43.06438912,1.688662478,375,Commune simple,776,ARIEGE,5,239,101,254,169,20254,109,4,101,4,16,41,42,0,8,0,25,70,94,,,,,,,8,99,107,,,,,,
COUTENS,9102,9,43.06769698,1.823264392,357,Commune simple,425,ARIEGE,6,166,65,139,99,18579,59,15,34,10,15,15,10,0,0,20,4,57,61,,,,,,,19,39,58,,,,,,
CRAMPAGNA,9103,9,43.02855901,1.589462384,418,Commune simple,996,ARIEGE,34,781,322,811,536,21331,334,52,272,10,50,87,139,19,25,19,24,243,267,,,,,,,89,293,383,,,,,,
DALOU,9104,9,43.0283201,1.647529019,455,Commune simple,777,ARIEGE,10,753,316,779,524,20626,297,45,233,20,40,75,135,10,20,20,26,290,315,,,,,,,49,244,293,,,,,,
DAUMAZAN SUR ARIZE,9105,9,43.14453976,1.304055496,270,Commune simple,1398,ARIEGE,55,713,317,652,468,16748,278,45,183,50,20,25,150,0,30,55,97,166,263,,,,,,,84,192,276,,,,,,
DREUILHE,9106,9,42.94392002,1.870994843,561,Commune simple,701,ARIEGE,106,353,151,365,249,18654,124,35,80,10,5,20,55,0,5,40,28,104,132,,,,,,,45,80,125,,,,,,
DUN,9107,9,43.02563593,1.792034925,418,Commune simple,4166,ARIEGE,23,542,265,569,402,18482,215,43,125,47,48,39,51,16,49,10,77,125,202,,,,,,,80,139,219,,,,,,
DURBAN SUR ARIZE,9108,9,43.0206902,1.347256972,443,Commune simple,687,ARIEGE,4,172,88,186,131,15770,71,5,38,29,10,25,10,0,25,5,20,29,49,,,,,,,27,54,81,,,,,,
DURFORT,9109,9,43.19568498,1.461899122,306,Commune simple,1108,ARIEGE,3,150,54,132,89,16824,70,30,30,10,0,25,5,0,40,0,33,37,70,,,,,,,41,31,72,,,,,,
ENCOURTIECH,9110,9,42.96366778,1.192363771,624,Commune simple,490,ARIEGE,15,92,0,0,0,0,30,5,25,0,0,15,10,0,0,5,0,43,43,,,,,,,5,26,31,,,,,,
ENGOMER,9111,9,42.94063473,1.063243256,654,Commune simple,764,ARIEGE,20,279,139,288,204,18458,115,43,57,14,10,34,15,5,34,20,20,63,83,,,,,,,28,53,81,,,,,,
ERCE,9113,9,42.83427963,1.302428805,1022,Commune simple,4103,ARIEGE,29,533,195,369,275,17112,172,44,94,34,20,30,60,0,40,25,76,100,176,,,,,,,65,110,175,,,,,,
ERP,9114,9,42.93484403,1.200027421,740,Commune simple,942,ARIEGE,1,122,64,115,86,14894,30,10,15,5,5,10,0,0,15,0,16,48,64,,,,,,,15,15,30,,,,,,
ESCLAGNE,9115,9,42.98233562,1.842956076,493,Commune simple,355,ARIEGE,2,132,62,138,96,18443,55,0,55,0,5,25,25,0,0,0,8,28,35,,,,,,,0,51,51,,,,,,
ESCOSSE,9116,9,43.1289241,1.549865749,325,Commune simple,1498,ARIEGE,20,419,166,412,275,18018,170,5,140,25,30,60,55,5,20,0,43,138,181,,,,,,,25,145,170,,,,,,
ESPLAS,9117,9,43.18645811,1.498830484,311,Commune simple,773,ARIEGE,2,96,0,0,0,0,59,5,35,20,5,10,25,0,15,5,12,19,31,,,,,,,19,39,58,,,,,,
ESPLAS DE SEROU,9118,9,42.95986657,1.354302276,845,Commune simple,3459,ARIEGE,5,168,63,130,93,13751,88,15,54,20,5,20,30,0,20,15,28,43,71,,,,,,,34,53,86,,,,,,
EYCHEIL,9119,9,42.95396498,1.156730489,608,Commune simple,490,ARIEGE,21,571,239,556,379,20367,208,25,162,20,20,45,101,0,25,15,23,140,163,,,,,,,41,170,211,,,,,,
FABAS,9120,9,43.11987123,1.114903645,409,Commune simple,2330,ARIEGE,32,347,122,254,182,18205,103,21,52,29,32,8,16,20,16,8,37,41,78,,,,,,,45,57,101,,,,,,
FERRIERES SUR ARIEGE,9121,9,42.93697161,1.606206732,596,Commune simple,349,ARIEGE,62,848,339,769,529,21584,335,26,282,26,25,119,145,5,25,10,45,283,328,1,,1702,,64,,68,284,352,1,,1530,,57,
FOIX,9122,9,42.96476777,1.608924621,486,Préfecture de département,1951,ARIEGE,2583,9721,4700,9384,6788,19268,3368,1322,1089,956,172,458,588,331,725,1095,2333,1556,3889,3,14,21180,55922,375,1144,2152,1221,3373,2,12,12394,66296,212,1142
FORNEX,9123,9,43.16441973,1.240419991,311,Commune simple,970,ARIEGE,15,112,49,110,77,19630,30,10,0,20,5,0,0,15,5,5,12,48,60,,,,,,,16,39,55,,,,,,
LE FOSSAT,9124,9,43.18008641,1.416264381,278,Commune simple,1458,ARIEGE,130,1081,422,922,644,17515,437,113,211,113,20,60,137,25,66,122,239,239,479,,,,,,,201,253,454,,,,,,
FOUGAX ET BARRINEUF,9125,9,42.87245793,1.89885463,779,Commune simple,3149,ARIEGE,9,449,210,437,314,16636,137,19,83,35,16,31,35,16,16,24,40,85,125,,,,,,,56,83,139,,,,,,
FREYCHENET,9126,9,42.89119825,1.730203683,968,Commune simple,2554,ARIEGE,1,93,0,0,0,0,35,15,10,10,0,10,5,0,15,5,20,16,36,,,,,,,20,15,36,,,,,,
GABRE,9127,9,43.06580095,1.421349727,414,Commune simple,1371,ARIEGE,1,105,0,0,0,0,32,0,23,9,5,9,10,0,10,0,8,54,62,,,,,,,4,20,24,,,,,,
GAJAN,9128,9,43.03645355,1.13493444,489,Commune simple,820,ARIEGE,10,308,131,317,215,21797,150,20,118,12,20,28,76,0,12,12,20,125,145,,,,,,,24,124,148,,,,,,
GALEY,9129,9,42.94516252,0.90217639,1039,Commune simple,948,ARIEGE,3,111,53,89,69,14582,48,39,0,10,10,0,0,10,15,15,28,20,48,,,,,,,37,9,46,,,,,,
GANAC,9130,9,42.93012276,1.559396721,914,Commune simple,2043,ARIEGE,5,689,309,685,478,20916,236,28,188,20,32,60,104,12,20,8,45,244,288,,,,,,,40,195,235,,,,,,
GARANOU,9131,9,42.76472434,1.745292031,803,Commune simple,310,ARIEGE,7,169,78,164,118,19919,64,0,59,5,5,5,55,0,0,0,12,52,64,,,,,,,0,65,65,,,,,,
GAUDIES,9132,9,43.1738584,1.72851861,270,Commune simple,1052,ARIEGE,4,218,94,214,148,18987,86,0,57,29,15,5,40,0,25,5,17,89,106,,,,,,,27,54,81,,,,,,
GENAT,9133,9,42.82849503,1.565296564,1055,Commune simple,825,ARIEGE,1,21,0,0,0,0,0,0,0,0,0,0,0,0,0,0,5,0,5,,,,,,,0,0,0,,,,,,
GESTIES,9134,9,42.71941497,1.584480877,1763,Commune simple,2730,ARIEGE,0,22,0,0,0,0,18,0,9,9,4,12,0,0,0,0,0,0,0,,,,,,,0,17,17,,,,,,
GOULIER,9135,9,42.74401367,1.505876647,1499,Commune simple,1034,ARIEGE,4,43,0,0,0,0,15,15,0,0,0,0,0,0,15,0,4,4,9,,,,,,,14,0,14,,,,,,
GOURBIT,9136,9,42.82857254,1.516034484,1309,Commune simple,1813,ARIEGE,1,95,0,0,0,0,6,0,6,0,6,0,0,0,0,0,4,24,28,,,,,,,16,8,24,,,,,,
GUDAS,9137,9,43.0013673,1.679399476,525,Commune simple,1081,ARIEGE,2,175,60,166,103,19162,70,9,62,0,4,25,31,0,8,0,4,94,98,,,,,,,9,60,69,,,,,,
L'HERM,9138,9,42.97266945,1.679299344,593,Commune simple,1484,ARIEGE,27,210,75,192,127,21276,75,20,45,10,0,20,30,0,5,20,23,90,113,,,,,,,26,51,77,,,,,,
L'HOSPITALET PRES L'ANDORRE,9139,9,42.59504733,1.777758845,2110,Commune simple,2680,ARIEGE,36,89,0,0,0,0,44,4,12,28,8,0,12,4,12,8,12,20,33,,,,,,,24,20,44,,,,,,
IGNAUX,9140,9,42.74311899,1.844867757,1303,Commune simple,548,ARIEGE,3,109,0,0,0,0,40,15,15,10,0,10,10,5,0,15,14,32,47,,,,,,,20,20,41,,,,,,
ILLARTEIN,9141,9,42.92163309,0.953446216,842,Commune simple,397,ARIEGE,15,76,0,0,0,0,15,0,10,5,0,10,0,0,5,0,4,20,24,,,,,,,5,10,15,,,,,,
ILHAT,9142,9,42.95121719,1.783874518,562,Commune simple,683,ARIEGE,2,120,52,117,82,18460,45,10,25,10,5,5,20,0,5,10,8,44,52,,,,,,,15,31,46,,,,,,
ILLIER ET LARAMADE,9143,9,42.78857237,1.54175754,1002,Commune simple,518,ARIEGE,1,23,0,0,0,0,0,0,0,0,0,0,0,0,0,0,0,0,0,,,,,,,0,0,0,,,,,,
LES ISSARDS,9145,9,43.0787976,1.737618659,298,Commune simple,384,ARIEGE,13,246,101,247,168,20571,110,20,80,10,20,40,20,5,15,10,24,78,102,,,,,,,31,82,113,,,,,,
JUSTINIAC,9146,9,43.21392553,1.488849782,325,Commune simple,458,ARIEGE,1,50,0,0,0,0,19,0,19,0,0,8,12,0,0,0,8,16,24,,,,,,,0,20,20,,,,,,
LABATUT,9147,9,43.26211373,1.521617332,242,Commune simple,360,ARIEGE,3,169,58,158,101,21241,79,0,64,15,10,25,40,0,0,5,8,53,60,,,,,,,5,72,77,,,,,,
LACAVE,9148,9,43.04777616,1.014052063,383,Commune simple,458,ARIEGE,2,149,60,135,93,19499,71,5,61,5,15,25,25,0,5,0,8,52,60,,,,,,,5,65,70,,,,,,
LACOURT,9149,9,42.93303165,1.170628072,704,Commune simple,1663,ARIEGE,13,203,102,193,142,17517,97,15,82,0,0,45,35,0,5,10,24,55,78,,,,,,,12,45,58,,,,,,
LAGARDE,9150,9,43.04629268,1.936880361,371,Commune simple,1198,ARIEGE,3,183,93,189,136,17279,58,4,41,12,16,16,12,4,4,4,12,37,49,,,,,,,12,44,57,,,,,,
LANOUX,9151,9,43.11950014,1.425438472,327,Commune simple,377,ARIEGE,0,52,0,0,0,0,15,0,10,5,5,5,5,0,0,0,4,23,26,,,,,,,0,16,16,,,,,,
LAPEGE,9152,9,42.80399055,1.555360441,1214,Commune simple,839,ARIEGE,1,27,0,0,0,0,0,0,0,0,0,0,0,0,0,0,0,0,0,,,,,,,0,0,0,,,,,,
LAPENNE,9153,9,43.14507732,1.775778685,345,Commune simple,2206,ARIEGE,0,129,50,113,79,18611,76,15,50,10,5,35,10,0,15,10,12,20,32,,,,,,,25,50,75,,,,,,
LARBONT,9154,9,42.99320372,1.400957591,558,Commune simple,623,ARIEGE,1,47,0,0,0,0,18,0,18,0,4,8,4,0,0,0,0,4,4,,,,,,,13,9,21,,,,,,
LARCAT,9155,9,42.76957109,1.646515508,1212,Commune simple,932,ARIEGE,1,43,0,0,0,0,25,0,25,0,10,5,10,0,0,0,12,8,20,,,,,,,0,23,23,,,,,,
LARNAT,9156,9,42.79699817,1.628001744,1082,Commune simple,562,ARIEGE,0,20,0,0,0,0,10,5,5,0,5,0,0,0,5,0,4,4,7,,,,,,,5,5,10,,,,,,
LAROQUE D'OLMES,9157,9,42.96776689,1.873539194,472,Commune simple,1434,ARIEGE,299,2490,1185,2519,1790,17716,795,209,463,122,28,120,353,31,86,180,380,531,911,1,1,1562,1702,46,51,299,501,801,1,1,1340,1598,40,48
LASSERRE,9158,9,43.0763903,1.164796621,495,Commune simple,866,ARIEGE,13,234,90,228,151,15424,102,19,68,15,25,45,5,5,15,10,13,50,63,,,,,,,49,45,94,,,,,,
LASSUR,9159,9,42.74260287,1.718376033,1368,Commune simple,1193,ARIEGE,2,68,0,0,0,0,37,5,32,0,0,5,28,0,0,5,0,18,18,,,,,,,4,29,33,,,,,,
LAVELANET,9160,9,42.93254286,1.8464358,572,Commune simple,1278,ARIEGE,883,6245,2903,5945,4271,16866,1687,674,674,339,55,210,433,105,271,608,965,837,1802,3,4,15962,10630,322,251,992,707,1699,2,2,8612,4074,182,110
LERAN,9161,9,42.9841502,1.917509463,409,Commune simple,1213,ARIEGE,30,609,260,544,386,17802,225,30,160,35,5,45,110,10,40,15,73,111,183,,,,,,,67,164,230,,,,,,
LERCOUL,9162,9,42.71046321,1.528104263,1771,Commune simple,1943,ARIEGE,0,26,0,0,0,0,5,0,0,5,5,0,0,0,0,0,0,8,8,,,,,,,0,5,5,,,,,,
LESCOUSSE,9163,9,43.14980923,1.513751857,343,Commune simple,852,ARIEGE,1,79,0,0,0,0,5,5,0,0,0,0,0,0,5,0,12,12,25,,,,,,,5,0,5,,,,,,
LESCURE,9164,9,43.00865553,1.242834556,497,Commune simple,2601,ARIEGE,15,501,210,510,345,18873,234,30,159,45,20,40,105,5,60,5,44,192,236,,,,,,,69,164,233,,,,,,
LESPARROU,9165,9,42.92764768,1.940102009,596,Commune simple,1642,ARIEGE,3,231,114,228,166,19346,88,8,56,24,0,24,36,0,16,12,32,51,83,,,,,,,28,59,87,,,,,,
LEYCHERT,9166,9,42.9469829,1.7268192,696,Commune simple,589,ARIEGE,1,101,0,0,0,0,35,5,25,5,0,15,10,0,10,0,24,37,61,,,,,,,10,25,35,,,,,,
LEZAT SUR LEZE,9167,9,43.27959772,1.343680097,246,Commune simple,4043,ARIEGE,283,2351,958,2220,1512,19544,880,210,495,175,80,170,295,15,115,205,394,564,958,1,,21858,,322,,336,551,887,1,,18822,,277,
LIEURAC,9168,9,42.98430632,1.791261642,419,Commune simple,644,ARIEGE,4,177,71,172,116,17650,50,5,45,0,5,35,5,0,5,0,4,55,59,,,,,,,5,44,49,,,,,,
LIMBRASSAC,9169,9,43.01126588,1.84405766,447,Commune simple,1246,ARIEGE,2,119,48,130,83,17710,55,0,35,20,10,20,5,10,10,0,16,16,33,,,,,,,19,33,52,,,,,,
LISSAC,9170,9,43.26805197,1.509611296,251,Commune simple,381,ARIEGE,2,223,80,201,131,20765,115,14,81,19,15,30,60,0,5,10,20,79,99,,,,,,,14,96,109,,,,,,
LORDAT,9171,9,42.79996279,1.785918609,1488,Commune simple,748,ARIEGE,4,53,0,0,0,0,34,4,17,13,0,16,4,0,8,4,4,18,22,,,,,,,0,18,18,,,,,,
LOUBAUT,9172,9,43.18929352,1.282853513,317,Commune simple,235,ARIEGE,1,29,0,0,0,0,0,0,0,0,0,0,0,0,0,0,0,4,4,,,,,,,0,12,12,,,,,,
LOUBENS,9173,9,43.04290444,1.554960797,491,Commune simple,1180,ARIEGE,16,261,107,277,182,18725,143,8,110,24,12,48,60,4,12,4,4,104,108,,,,,,,20,122,142,,,,,,
LOUBIERES,9174,9,43.00972006,1.594619731,426,Commune simple,306,ARIEGE,19,314,115,312,201,20717,143,5,134,5,15,65,58,5,5,0,24,114,138,,,,,,,23,133,156,,,,,,
LUDIES,9175,9,43.11930877,1.716263901,296,Commune simple,189,ARIEGE,1,71,0,0,0,0,17,0,17,0,4,4,8,0,0,0,5,41,46,,,,,,,4,20,24,,,,,,
LUZENAC,9176,9,42.72011807,1.742650607,1523,Commune simple,2655,ARIEGE,105,518,228,480,344,19992,195,60,95,40,5,15,85,5,10,75,103,116,218,,,,,,,94,109,203,,,,,,
MADIERE,9177,9,43.10967959,1.511662373,372,Commune simple,1043,ARIEGE,5,199,84,195,135,17135,69,5,54,10,5,10,45,0,5,5,24,36,60,,,,,,,10,60,70,,,,,,
MALEGOUDE,9178,9,43.11254974,1.932893349,360,Commune simple,619,ARIEGE,4,42,0,0,0,0,24,0,14,10,0,10,5,10,0,0,21,10,31,,,,,,,9,14,23,,,,,,
MALLEON,9179,9,43.03249163,1.71606371,466,Commune simple,686,ARIEGE,4,61,0,0,0,0,22,4,13,4,0,4,9,0,8,0,0,20,20,,,,,,,8,12,21,,,,,,
MANSES,9180,9,43.10706648,1.813953111,365,Commune simple,1543,ARIEGE,1,131,54,121,84,19189,57,8,28,20,0,24,8,4,20,0,8,24,32,,,,,,,24,32,56,,,,,,
LE MAS D'AZIL,9181,9,43.06925003,1.348894644,401,Commune simple,3956,ARIEGE,123,1193,519,1076,764,16711,402,171,121,111,20,70,60,20,135,95,234,173,407,,,,,,,253,152,404,,,,,,
MASSAT,9182,9,42.87583903,1.377035532,1101,Commune simple,4518,ARIEGE,75,681,324,609,445,13940,215,95,65,55,10,15,50,20,50,70,126,81,207,,,,,,,141,76,217,,,,,,
MAUVEZIN DE PRAT,9183,9,43.03293675,0.990658611,405,Commune simple,182,ARIEGE,5,96,0,0,0,0,50,0,40,10,0,20,25,5,0,0,11,38,50,,,,,,,5,44,49,,,,,,
MAUVEZIN DE SAINTE CROIX,9184,9,43.07645161,1.232492242,497,Commune simple,533,ARIEGE,2,38,0,0,0,0,15,5,10,0,10,0,0,5,0,0,0,8,8,,,,,,,5,10,15,,,,,,
MAZERES,9185,9,43.23064069,1.678888003,249,Commune simple,4425,ARIEGE,554,3810,1529,3575,2418,18701,1440,455,770,215,145,270,395,55,205,370,669,754,1423,2,,24218,,305,,626,807,1433,2,,23098,,289,
MERAS,9186,9,43.18252396,1.309093847,341,Commune simple,366,ARIEGE,0,104,0,0,0,0,50,10,30,10,0,10,20,0,15,5,22,15,37,,,,,,,20,30,50,,,,,,
MERCENAC,9187,9,43.05337361,1.066465728,417,Commune simple,1366,ARIEGE,26,368,147,357,240,20111,145,10,120,15,20,40,60,0,20,5,23,118,141,,,,,,,25,122,147,,,,,,
MERCUS GARRABET,9188,9,42.88032717,1.643734681,735,Commune simple,1507,ARIEGE,65,1144,512,1187,814,19013,475,73,354,48,50,131,194,15,45,44,98,374,471,,,,,,,164,376,540,,,,,,
MERENS LES VALS,9189,9,42.6282368,1.834616265,1903,Commune simple,8053,ARIEGE,7,165,67,149,104,18394,86,0,56,30,0,5,60,0,0,20,20,52,72,,,,,,,20,65,85,,,,,,
MERIGON,9190,9,43.09069528,1.204612588,417,Commune simple,634,ARIEGE,1,115,46,104,72,16077,43,8,27,8,4,16,16,0,4,4,40,32,71,,,,,,,8,36,44,,,,,,
MIGLOS,9192,9,42.77926548,1.605566989,1142,Commune simple,1878,ARIEGE,4,121,58,112,82,17728,41,26,5,10,0,5,0,10,5,20,8,24,32,,,,,,,25,25,49,,,,,,
MIJANES,9193,9,42.71052331,2.012871496,1716,Commune simple,3976,ARIEGE,2,62,0,0,0,0,10,5,5,0,0,0,5,0,5,0,12,20,32,,,,,,,5,5,10,,,,,,
MIREPOIX,9194,9,43.10993712,1.869614449,352,Commune simple,4768,ARIEGE,438,3148,1489,3021,2177,17712,1045,301,410,335,69,130,259,139,194,249,600,432,1032,,,,,,,582,458,1040,,,,,,
MONESPLE,9195,9,43.09576464,1.476668019,411,Commune simple,613,ARIEGE,0,24,0,0,0,0,10,0,10,0,0,5,5,0,0,0,4,25,29,,,,,,,0,9,9,,,,,,
MONTAGAGNE,9196,9,42.96502515,1.412805326,881,Commune simple,693,ARIEGE,12,62,0,0,0,0,20,5,15,0,5,10,0,0,5,0,8,4,11,,,,,,,4,13,18,,,,,,
MONTAILLOU,9197,9,42.7800888,1.902368269,1424,Commune simple,886,ARIEGE,4,18,0,0,0,0,5,5,0,0,0,0,0,0,5,0,4,0,4,,,,,,,5,0,5,,,,,,
MONTARDIT,9198,9,43.06920269,1.186296876,449,Commune simple,733,ARIEGE,15,191,84,168,123,17433,75,0,60,15,5,30,35,0,5,0,12,78,89,,,,,,,5,71,76,,,,,,
MONTAUT,9199,9,43.18649768,1.656595249,268,Commune simple,3524,ARIEGE,36,711,282,706,470,18228,305,25,230,50,25,80,130,15,35,20,76,204,280,,,,,,,70,235,305,,,,,,
MONTBEL,9200,9,42.97892882,1.96752487,429,Commune simple,1756,ARIEGE,5,120,0,0,0,0,61,5,36,20,5,0,32,10,10,5,20,16,36,,,,,,,25,37,62,,,,,,
MONTEGUT EN COUSERANS,9201,9,42.982569,1.090435917,540,Commune simple,630,ARIEGE,1,64,0,0,0,0,40,4,36,0,4,4,25,0,4,0,16,32,48,,,,,,,16,19,35,,,,,,
MONTEGUT PLANTAUREL,9202,9,43.07543912,1.496787171,393,Commune simple,1926,ARIEGE,56,339,152,311,222,17144,185,40,95,50,20,25,55,10,25,50,59,95,154,,,,,,,86,98,185,,,,,,
MONTELS,9203,9,43.0059775,1.469205441,461,Commune simple,375,ARIEGE,15,159,71,166,115,17806,43,0,32,12,0,16,16,4,8,0,0,53,53,,,,,,,12,32,43,,,,,,
MONTESQUIEU AVANTES,9204,9,43.035057,1.215799541,524,Commune simple,1661,ARIEGE,2,252,98,250,165,16106,80,10,60,10,15,10,35,0,10,10,8,105,113,,,,,,,20,61,81,,,,,,
MONTFA,9205,9,43.10083339,1.288630752,396,Commune simple,880,ARIEGE,2,79,0,0,0,0,29,5,20,5,0,10,15,0,5,0,16,20,36,,,,,,,5,24,29,,,,,,
MONTFERRIER,9206,9,42.86575254,1.770530521,1260,Commune simple,5211,ARIEGE,43,548,272,543,396,17086,120,10,100,10,15,25,60,0,10,10,129,133,262,,,,,,,22,108,129,,,,,,
MONTGAILLARD,9207,9,42.93777903,1.642570172,556,Commune simple,806,ARIEGE,85,1423,665,1449,1020,20567,496,61,363,73,86,121,195,20,32,40,118,429,547,1,,1752,,40,,92,398,490,1,,1246,,29,
MONTGAUCH,9208,9,42.99394915,1.073069244,560,Commune simple,909,ARIEGE,1,122,59,116,86,19655,65,20,40,5,5,15,20,5,5,15,8,54,61,,,,,,,25,40,65,,,,,,
MONTJOIE EN COUSERANS,9209,9,43.01499369,1.175914711,497,Commune simple,2992,ARIEGE,33,1072,475,1056,740,20149,440,70,330,40,40,95,220,10,50,25,112,320,432,1,,2364,,46,,84,352,436,1,,2764,,53,
MONTOULIEU,9210,9,42.90321352,1.604006188,966,Commune simple,1429,ARIEGE,4,378,173,385,265,19477,168,19,149,0,25,64,64,0,10,10,12,118,130,,,,,,,18,143,162,,,,,,
MONTSEGUR,9211,9,42.84236001,1.826655313,1399,Commune simple,3746,ARIEGE,6,137,60,111,84,16557,17,6,6,6,0,0,6,0,6,6,12,24,36,,,,,,,17,12,29,,,,,,
MONTSERON,9212,9,43.02126337,1.316187476,477,Commune simple,874,ARIEGE,3,82,0,0,0,0,27,5,18,5,0,5,14,0,5,5,17,8,25,,,,,,,0,21,21,,,,,,
MOULIN NEUF,9213,9,43.07059208,1.947480135,364,Commune simple,289,ARIEGE,7,227,89,209,141,19795,69,0,59,10,5,30,25,0,5,5,19,64,82,,,,,,,10,58,68,,,,,,
MOULIS,9214,9,42.94354334,1.098666016,750,Commune simple,3684,ARIEGE,41,785,367,774,549,19965,274,56,183,36,20,55,126,10,40,20,72,215,287,1,,2952,,88,,72,206,278,1,,2112,,63,
NALZEN,9215,9,42.91936705,1.746891665,654,Commune simple,557,ARIEGE,1,137,60,122,88,19177,67,5,62,0,0,20,41,0,5,0,12,32,44,,,,,,,5,60,65,,,,,,
NESCUS,9216,9,42.99290157,1.437011085,480,Commune simple,302,ARIEGE,0,62,0,0,0,0,34,4,19,11,0,8,12,0,16,0,16,32,49,,,,,,,16,20,35,,,,,,
NIAUX,9217,9,42.81560181,1.599239859,845,Commune simple,396,ARIEGE,29,188,91,173,128,19321,61,8,37,16,0,8,32,4,4,12,32,32,65,,,,,,,21,42,63,,,,,,
ORGEIX,9218,9,42.67626236,1.876820407,1652,Commune simple,1854,ARIEGE,4,82,0,0,0,0,39,0,34,5,10,10,15,0,5,0,0,28,28,,,,,,,5,33,38,,,,,,
ORGIBET,9219,9,42.92726865,0.939114481,809,Commune simple,763,ARIEGE,5,165,86,168,122,15195,43,14,24,5,5,10,10,5,15,0,12,29,41,,,,,,,18,23,41,,,,,,
ORLU,9220,9,42.65776627,1.937327578,1876,Commune simple,7154,ARIEGE,8,194,76,176,119,20259,68,6,51,11,0,29,23,0,12,6,31,58,90,,,,,,,17,41,58,,,,,,
ORNOLAC USSAT LES BAINS,9221,9,42.82206463,1.645698639,949,Commune simple,1214,ARIEGE,34,245,88,180,128,17129,85,15,65,5,25,20,25,10,0,5,27,54,82,,,,,,,15,72,87,,,,,,
ORUS,9222,9,42.79380944,1.512756112,1447,Commune simple,906,ARIEGE,0,26,0,0,0,0,0,0,0,0,0,0,0,0,0,0,0,4,4,,,,,,,0,0,0,,,,,,
OUST,9223,9,42.86066265,1.234301064,775,Commune simple,1908,ARIEGE,41,540,255,495,360,17727,181,45,116,21,12,39,70,4,19,38,82,168,250,,,,,,,63,123,186,,,,,,
PAILHES,9224,9,43.10004613,1.447793207,362,Commune simple,2161,ARIEGE,11,441,196,439,302,16762,184,29,116,39,0,58,59,0,53,15,46,115,161,,,,,,,65,112,177,,,,,,
PAMIERS,9225,9,43.12361727,1.616840918,307,Sous-préfecture,4634,ARIEGE,2853,15518,6996,14838,10417,17464,5436,2147,1767,1522,328,566,1140,375,838,2186,3689,2079,5768,5,15,73980,102668,992,1824,3485,2078,5563,6,13,64352,84662,905,1539
PECH,9226,9,42.76284056,1.688633148,1081,Commune simple,479,ARIEGE,1,43,0,0,0,0,35,10,20,5,0,0,20,10,5,0,0,14,14,,,,,,,16,22,38,,,,,,
PEREILLE,9227,9,42.92920581,1.809097675,691,Commune simple,549,ARIEGE,2,210,85,194,135,21290,90,10,80,0,10,15,55,0,5,5,8,71,78,,,,,,,10,79,89,,,,,,
PERLES ET CASTELET,9228,9,42.7185643,1.774099184,1360,Commune simple,1803,ARIEGE,58,217,94,205,143,20590,100,10,85,5,5,25,55,5,5,5,15,69,85,,,,,,,15,83,98,,,,,,
LE PEYRAT,9229,9,42.95528021,1.927219504,481,Commune simple,623,ARIEGE,19,481,213,486,335,18244,160,20,135,5,10,40,90,0,5,15,8,143,151,,,,,,,20,141,161,,,,,,
LE PLA,9230,9,42.68882499,2.056146978,1697,Commune simple,1321,ARIEGE,2,55,0,0,0,0,0,0,0,0,0,0,0,0,0,0,0,25,25,,,,,,,0,0,0,,,,,,
LE PORT,9231,9,42.83545256,1.386220428,1343,Commune simple,5022,ARIEGE,5,152,84,143,110,11554,46,15,19,13,0,15,4,0,10,18,36,36,72,,,,,,,28,19,47,,,,,,
PRADES,9232,9,42.79062025,1.860354981,1482,Commune simple,2922,ARIEGE,5,40,0,0,0,0,29,0,0,29,0,0,0,18,6,6,8,4,12,,,,,,,4,0,4,,,,,,
PRADETTES,9233,9,42.99152101,1.820410663,494,Commune simple,352,ARIEGE,3,44,0,0,0,0,25,5,10,10,15,5,0,0,5,0,0,15,15,,,,,,,5,19,24,,,,,,
PRADIERES,9234,9,42.96072612,1.656736765,656,Commune simple,676,ARIEGE,1,115,51,119,81,18953,45,10,35,0,0,10,25,0,5,5,16,47,63,,,,,,,10,35,45,,,,,,
PRAT BONREPAUX,9235,9,43.031152,1.02614408,376,Commune simple,1460,ARIEGE,68,890,353,737,524,18799,336,72,202,61,30,57,135,5,50,56,64,216,280,,,,,,,110,215,325,,,,,,
PRAYOLS,9236,9,42.92130882,1.602260868,876,Commune simple,792,ARIEGE,5,381,159,383,260,21236,164,4,152,8,24,56,76,0,4,4,12,162,174,,,,,,,8,155,163,,,,,,
LE PUCH,9237,9,42.72076358,2.099268199,1109,Commune simple,285,ARIEGE,0,34,0,0,0,0,5,0,5,0,0,0,5,0,0,0,7,4,11,,,,,,,0,6,6,,,,,,
LES PUJOLS,9238,9,43.09114581,1.718666363,309,Commune simple,1334,ARIEGE,38,764,299,764,500,20150,361,34,279,48,40,117,142,14,25,29,50,199,249,1,,2932,,50,,70,260,330,1,,2906,,50,
QUERIGUT,9239,9,42.68356038,2.114807824,1539,Commune simple,3638,ARIEGE,8,139,69,121,93,19737,45,15,15,15,0,0,15,10,10,10,12,25,37,,,,,,,30,15,45,,,,,,
QUIE,9240,9,42.8417955,1.590369678,681,Commune simple,250,ARIEGE,6,297,145,286,210,20607,95,5,65,25,20,5,60,0,5,5,17,84,101,,,,,,,10,84,93,,,,,,
RABAT LES TROIS SEIGNEURS,9241,9,42.84575395,1.493639842,1295,Commune simple,2702,ARIEGE,18,352,173,351,253,19286,144,50,89,5,5,49,40,5,45,0,28,104,132,,,,,,,50,94,144,,,,,,
RAISSAC,9242,9,42.94190945,1.815334733,655,Commune simple,376,ARIEGE,2,44,0,0,0,0,15,0,8,8,4,4,4,0,4,0,0,4,4,,,,,,,4,12,16,,,,,,
REGAT,9243,9,42.9878289,1.88793575,421,Commune simple,218,ARIEGE,2,88,0,0,0,0,36,5,31,0,10,15,5,0,5,0,0,49,49,,,,,,,8,43,50,,,,,,
RIEUCROS,9244,9,43.07586849,1.762703536,296,Commune simple,566,ARIEGE,15,662,254,643,422,17856,270,25,200,45,25,60,145,0,5,35,58,200,258,,,,,,,39,225,264,,,,,,
RIEUX DE PELLEPORT,9245,9,43.05918019,1.600149721,410,Commune simple,825,ARIEGE,57,1285,496,1289,844,20170,565,30,510,25,80,180,255,10,10,30,58,434,492,1,,3044,,88,,49,509,558,1,,3600,,104,
RIMONT,9246,9,42.98706596,1.284595528,581,Commune simple,2906,ARIEGE,16,534,243,518,370,18439,248,50,174,25,15,70,95,0,60,10,64,148,212,,,,,,,70,180,250,,,,,,
RIVERENERT,9247,9,42.95096817,1.261385284,806,Commune simple,2896,ARIEGE,2,192,94,190,137,17098,60,5,54,0,5,30,16,5,0,0,29,33,63,,,,,,,16,33,49,,,,,,
ROQUEFIXADE,9249,9,42.93283357,1.765343692,710,Commune simple,1241,ARIEGE,4,151,73,137,103,19170,60,0,40,20,10,15,20,0,10,5,8,63,71,,,,,,,15,45,60,,,,,,
ROQUEFORT LES CASCADES,9250,9,42.96144897,1.743066849,586,Commune simple,705,ARIEGE,1,93,0,0,0,0,51,0,51,0,10,20,20,0,0,0,0,41,41,,,,,,,0,51,51,,,,,,
ROUMENGOUX,9251,9,43.07578865,1.924345006,350,Commune simple,683,ARIEGE,28,175,64,158,107,18797,58,4,54,0,20,12,20,0,4,0,13,47,59,,,,,,,4,53,57,,,,,,
ROUZE,9252,9,42.7407234,2.071871559,1175,Commune simple,957,ARIEGE,4,85,0,0,0,0,20,15,5,0,0,0,5,0,10,5,4,24,28,,,,,,,15,5,20,,,,,,
SABARAT,9253,9,43.09778357,1.400572066,343,Commune simple,970,ARIEGE,27,331,152,325,228,17181,96,12,77,8,24,30,27,4,4,8,41,61,102,,,,,,,16,83,99,,,,,,
SAINT AMADOU,9254,9,43.11103875,1.716026247,295,Commune simple,469,ARIEGE,3,257,101,246,164,19133,125,5,115,5,30,30,57,0,0,5,12,94,106,,,,,,,16,81,97,,,,,,
SAINT AMANS,9255,9,43.16219025,1.550432388,352,Commune simple,270,ARIEGE,0,43,0,0,0,0,10,10,0,0,0,0,0,0,5,5,0,21,21,,,,,,,10,0,10,,,,,,
SAINT BAUZEIL,9256,9,43.08211613,1.582142485,390,Commune simple,446,ARIEGE,2,64,0,0,0,0,15,0,10,5,0,0,10,0,5,0,26,26,53,,,,,,,5,11,16,,,,,,
SAINTE CROIX VOLVESTRE,9257,9,43.11991444,1.170579569,390,Commune simple,2005,ARIEGE,74,636,288,606,430,17265,222,60,136,25,35,45,55,25,20,40,106,122,228,,,,,,,86,137,223,,,,,,
SAINT FELIX DE RIEUTORD,9258,9,43.04307866,1.669412294,414,Commune simple,685,ARIEGE,6,457,192,478,317,20468,193,20,159,15,15,55,95,0,30,0,19,198,217,,,,,,,29,162,192,,,,,,
SAINT FELIX DE TOURNEGAT,9259,9,43.12356017,1.756253052,318,Commune simple,1055,ARIEGE,3,140,55,140,92,18492,65,0,55,10,5,20,30,5,5,0,24,44,68,,,,,,,10,55,65,,,,,,
SAINTE FOI,9260,9,43.12599151,1.91700002,377,Commune simple,247,ARIEGE,0,23,0,0,0,0,8,0,8,0,0,0,8,0,0,0,4,16,20,,,,,,,0,8,8,,,,,,
SAINT GIRONS,9261,9,42.97460905,1.15258906,508,Sous-préfecture,1904,ARIEGE,1105,6284,3208,6000,4454,18726,2064,666,839,559,140,244,564,237,391,494,1359,901,2260,2,4,4016,8722,128,244,1193,910,2103,2,4,4038,9044,130,244
SAINT JEAN D'AIGUES VIVES,9262,9,42.91859486,1.877764615,561,Commune simple,448,ARIEGE,11,399,179,401,282,18614,132,20,96,15,5,25,70,10,10,10,4,127,131,,,,,,,31,103,134,,,,,,
SAINT JEAN DU CASTILLONNAIS,9263,9,42.95183123,0.929303154,1004,Commune simple,477,ARIEGE,3,24,0,0,0,0,4,0,4,0,0,4,0,0,0,0,0,4,4,,,,,,,0,4,4,,,,,,
SAINT JEAN DE VERGES,9264,9,43.01180538,1.632787805,449,Commune simple,1290,ARIEGE,188,1200,502,1199,805,20219,530,110,385,35,40,145,220,0,75,50,121,375,496,1,2,2298,9026,61,177,123,398,521,1,2,2718,8010,72,154
SAINT JEAN DU FALGA,9265,9,43.08630374,1.623861077,307,Commune simple,406,ARIEGE,393,2857,1201,2730,1886,20237,1030,215,695,120,80,235,450,30,85,150,248,733,982,1,1,3978,1192,131,41,263,759,1022,1,1,3936,1674,130,58
SAINT JULIEN DE GRAS CAPOU,9266,9,43.03577744,1.85628825,378,Commune simple,625,ARIEGE,3,59,0,0,0,0,40,15,15,10,0,0,15,0,15,10,0,17,17,,,,,,,25,15,41,,,,,,
SAINT LARY,9267,9,42.89964763,0.868609541,1260,Commune simple,3427,ARIEGE,2,133,64,115,87,15557,30,20,5,5,0,5,0,5,20,0,28,8,36,,,,,,,24,16,40,,,,,,
SAINT LIZIER,9268,9,42.9990833,1.127654411,428,Commune simple,909,ARIEGE,291,1417,641,1302,941,21399,379,170,150,60,45,45,70,50,75,95,164,300,464,1,1,1792,2256,66,82,185,266,451,1,1,1404,2430,52,88
SAINT MARTIN DE CARALP,9269,9,42.99178364,1.538361097,603,Commune simple,926,ARIEGE,4,342,156,356,244,19367,143,12,115,16,48,52,20,4,8,12,24,137,161,,,,,,,24,120,144,,,,,,
SAINT MARTIN D'OYDES,9270,9,43.16625099,1.484136356,314,Commune simple,1190,ARIEGE,5,254,100,222,154,19229,89,11,68,11,10,30,26,0,10,10,31,81,112,,,,,,,22,71,93,,,,,,
SAINT MICHEL,9271,9,43.13348844,1.50161419,367,Commune simple,587,ARIEGE,4,74,0,0,0,0,35,10,15,10,0,5,10,0,15,5,13,17,30,,,,,,,20,15,35,,,,,,
SAINT PAUL DE JARRAT,9272,9,42.89609008,1.671421299,829,Commune simple,2254,ARIEGE,153,1266,580,1330,916,19923,522,123,330,69,35,154,164,5,80,90,143,356,499,1,,3152,,77,,170,344,514,1,,2248,,55,
SAINT PIERRE DE RIVIERE,9273,9,42.96585935,1.557102304,492,Commune simple,236,ARIEGE,28,613,281,649,447,23214,298,52,220,25,26,69,132,15,32,21,53,256,309,1,,1808,,49,,72,235,307,1,,1414,,38,
SAINT QUENTIN LA TOUR,9274,9,43.03124283,1.905988164,388,Commune simple,891,ARIEGE,6,330,133,307,210,18321,103,25,74,5,10,25,40,5,10,15,46,83,129,,,,,,,28,110,138,,,,,,
SAINT QUIRC,9275,9,43.27999233,1.501574883,220,Commune simple,374,ARIEGE,30,389,138,334,224,20528,158,15,127,15,30,45,60,5,0,15,31,111,142,,,,,,,21,140,161,,,,,,
SAINT VICTOR ROUZAUD,9276,9,43.08752807,1.547367609,374,Commune simple,1270,ARIEGE,4,234,95,230,156,19333,122,23,72,27,0,52,29,10,29,10,16,77,93,,,,,,,42,72,114,,,,,,
SAINT YBARS,9277,9,43.24177713,1.39850498,271,Commune simple,2462,ARIEGE,19,634,289,669,457,18657,242,48,146,48,35,62,79,12,28,24,81,178,258,,,,,,,63,185,247,,,,,,
SALSEIN,9279,9,42.90445952,1.001427374,938,Commune simple,579,ARIEGE,1,45,0,0,0,0,5,0,0,5,0,5,0,0,0,0,4,16,20,,,,,,,0,5,5,,,,,,
SAURAT,9280,9,42.88401094,1.503961596,1181,Commune simple,4471,ARIEGE,12,654,330,633,462,17127,244,86,122,36,5,45,80,15,71,25,115,130,245,,,,,,,113,134,247,,,,,,
SAUTEL,9281,9,42.96709287,1.817799187,535,Commune simple,930,ARIEGE,3,106,51,118,82,16321,15,5,10,0,0,5,5,0,5,0,20,44,64,,,,,,,5,10,15,,,,,,
SAVERDUN,9282,9,43.2270249,1.573737789,268,Commune simple,6211,ARIEGE,467,4658,1945,4539,3082,19338,1780,365,985,430,195,310,615,85,205,370,753,1125,1878,3,,39718,,579,,649,1104,1753,2,,40420,,567,
SAVIGNAC LES ORMEAUX,9283,9,42.68205642,1.778898818,1544,Commune simple,2815,ARIEGE,38,398,175,384,269,18415,155,15,80,60,0,40,50,5,25,35,77,101,178,,,,,,,68,94,162,,,,,,
SEGURA,9284,9,43.03151299,1.69221398,482,Commune simple,879,ARIEGE,5,180,74,169,114,19588,90,0,85,5,10,35,40,0,5,0,20,70,90,,,,,,,5,84,89,,,,,,
SEIX,9285,9,42.81827648,1.148372019,1241,Commune simple,8750,ARIEGE,104,719,330,634,468,16776,274,96,112,66,35,20,60,45,60,50,160,136,295,,,,,,,156,91,247,,,,,,
SEM,9286,9,42.75585327,1.523377412,1404,Commune simple,526,ARIEGE,1,23,0,0,0,0,5,0,5,0,0,0,5,0,0,0,0,4,4,,,,,,,0,5,5,,,,,,
SENCONAC,9287,9,42.81398764,1.715689101,1319,Commune simple,460,ARIEGE,1,10,0,0,0,0,5,0,5,0,0,5,0,0,0,0,0,3,3,,,,,,,0,4,4,,,,,,
LORP SENTARAILLE,9289,9,43.01602035,1.107818079,374,Commune simple,615,ARIEGE,306,1380,596,1419,963,19276,614,136,414,63,50,126,257,44,44,92,149,290,439,1,1,1614,1760,44,46,175,422,597,1,1,2766,1608,76,42
SENTEIN,9290,9,42.83581467,0.920518407,1643,Commune simple,5866,ARIEGE,10,156,82,145,110,15976,51,21,5,26,0,5,0,5,30,10,16,33,49,,,,,,,40,24,64,,,,,,
SENTENAC D'OUST,9291,9,42.86577968,1.139298362,1144,Commune simple,1860,ARIEGE,0,107,53,103,75,14540,40,0,40,0,5,15,20,0,0,0,16,28,44,,,,,,,0,40,40,,,,,,
SENTENAC DE SEROU,9292,9,42.94522426,1.395086891,984,Commune simple,1373,ARIEGE,0,38,0,0,0,0,12,0,12,0,0,8,4,0,0,0,4,12,16,,,,,,,0,13,13,,,,,,
SERRES SUR ARGET,9293,9,42.97052027,1.504563601,681,Commune simple,1784,ARIEGE,34,779,332,723,507,19896,247,33,192,22,25,101,64,10,5,31,85,240,325,,,,,,,88,159,247,,,,,,
SIEURAS,9294,9,43.19305031,1.344920042,314,Commune simple,770,ARIEGE,3,77,0,0,0,0,32,9,9,14,5,5,0,5,5,15,4,26,30,,,,,,,21,8,29,,,,,,
SIGUER,9295,9,42.70847534,1.552950775,1717,Commune simple,3831,ARIEGE,3,102,60,112,84,18623,45,15,20,10,0,10,15,0,10,10,11,21,32,,,,,,,21,26,46,,,,,,
SINSAT,9296,9,42.800732,1.659778962,721,Commune simple,407,ARIEGE,5,115,50,102,73,18046,36,5,31,0,15,10,5,0,0,5,0,32,32,,,,,,,5,30,35,,,,,,
SOR,9297,9,42.9186859,1.010554241,658,Commune simple,109,ARIEGE,0,31,0,0,0,0,15,4,11,0,0,4,8,0,4,0,0,17,17,,,,,,,4,12,16,,,,,,
SORGEAT,9298,9,42.74409958,1.887783999,1496,Commune simple,1929,ARIEGE,2,89,0,0,0,0,41,10,31,0,0,15,15,5,0,5,12,36,49,,,,,,,11,32,43,,,,,,
SOUEIX ROGALLE,9299,9,42.89708089,1.193965276,683,Commune simple,1390,ARIEGE,9,415,197,432,302,18612,140,10,120,10,5,50,70,0,5,10,39,81,119,,,,,,,15,123,138,,,,,,
SOULA,9300,9,42.9409115,1.690673845,670,Commune simple,1135,ARIEGE,2,195,82,181,128,19860,107,11,59,37,15,21,25,10,27,5,34,76,110,,,,,,,24,53,77,,,,,,
SOULAN,9301,9,42.91609616,1.242979435,816,Commune simple,2392,ARIEGE,12,356,175,351,254,16371,102,29,63,10,0,15,55,0,10,25,53,69,122,,,,,,,32,79,110,,,,,,
SUC ET SENTENAC,9302,9,42.80126335,1.455783709,1565,Commune simple,3163,ARIEGE,3,48,0,0,0,0,14,5,9,0,0,0,10,0,5,0,12,16,28,,,,,,,0,12,12,,,,,,
SURBA,9303,9,42.8600888,1.579589923,609,Commune simple,220,ARIEGE,5,352,155,349,246,20943,153,5,127,21,15,57,58,5,10,5,24,129,154,,,,,,,32,109,141,,,,,,
SUZAN,9304,9,43.03029852,1.431978673,548,Commune simple,241,ARIEGE,0,22,0,0,0,0,12,0,6,6,0,0,6,0,6,0,8,0,8,,,,,,,7,7,13,,,,,,
TABRE,9305,9,42.98994593,1.855700872,507,Commune simple,288,ARIEGE,23,371,167,380,263,19065,158,5,133,20,15,39,83,5,5,10,12,140,152,,,,,,,20,137,157,,,,,,
TARASCON SUR ARIEGE,9306,9,42.84700722,1.595996365,650,Commune simple,864,ARIEGE,589,3322,1380,2905,2062,17172,954,254,461,238,51,162,296,37,127,277,629,584,1212,,,,,,,544,457,1001,,,,,,
TAURIGNAN CASTET,9307,9,43.06104094,1.100891994,475,Commune simple,684,ARIEGE,15,181,75,163,115,18943,85,5,80,0,0,25,52,0,5,0,8,54,62,,,,,,,20,61,81,,,,,,
TAURIGNAN VIEUX,9308,9,43.04328767,1.113479346,423,Commune simple,598,ARIEGE,3,206,102,215,153,19893,103,0,96,8,8,36,56,0,4,0,20,60,80,,,,,,,4,100,104,,,,,,
TEILHET,9309,9,43.09708064,1.781582126,325,Commune simple,896,ARIEGE,19,151,65,148,102,17444,49,10,30,10,5,5,30,0,5,5,21,48,70,,,,,,,10,39,48,,,,,,
THOUARS SUR ARIZE,9310,9,43.18237584,1.236889887,260,Commune simple,233,ARIEGE,3,51,0,0,0,0,30,0,25,5,0,0,30,0,0,0,4,15,19,,,,,,,0,30,30,,,,,,
TIGNAC,9311,9,42.7501383,1.799147387,1142,Commune simple,366,ARIEGE,1,22,0,0,0,0,5,0,5,0,0,0,5,0,0,0,0,14,14,,,,,,,0,5,5,,,,,,
LA TOUR DU CRIEU,9312,9,43.1056159,1.667031919,310,Commune simple,1039,ARIEGE,128,3071,1220,3066,2028,20084,1177,162,929,86,159,278,551,25,71,90,204,864,1068,1,,7390,,183,,184,972,1156,1,,7372,,182,
TOURTOUSE,9313,9,43.09045245,1.137062752,429,Commune simple,1197,ARIEGE,3,142,66,137,97,15462,84,5,74,5,0,5,70,0,10,0,12,60,72,,,,,,,10,75,85,,,,,,
TOURTROL,9314,9,43.06867154,1.800308926,305,Commune simple,515,ARIEGE,16,265,95,261,170,19292,115,20,90,5,5,30,55,5,15,5,8,100,108,,,,,,,24,85,109,,,,,,
TREMOULET,9315,9,43.15815028,1.716161998,267,Commune simple,391,ARIEGE,1,120,40,102,66,18032,39,0,39,0,5,10,25,0,0,0,7,37,43,,,,,,,0,39,39,,,,,,
TROYE D'ARIEGE,9316,9,43.02105107,1.886747855,417,Commune simple,831,ARIEGE,2,92,0,0,0,0,55,0,55,0,10,25,20,0,0,0,11,38,49,,,,,,,0,56,56,,,,,,
UCHENTEIN,9317,9,42.88761289,1.005279628,900,Commune simple,405,ARIEGE,0,20,0,0,0,0,0,0,0,0,,,,,,,19,0,19,,,,,,,5,0,5,,,,,,
UNAC,9318,9,42.75874577,1.779490283,742,Commune simple,256,ARIEGE,2,116,57,117,84,21217,49,10,39,0,0,25,15,0,5,5,8,40,48,,,,,,,20,48,68,,,,,,
UNZENT,9319,9,43.17072469,1.532834128,337,Commune simple,795,ARIEGE,1,124,0,0,0,0,36,5,21,10,5,5,10,0,15,0,24,36,60,,,,,,,20,43,63,,,,,,
URS,9320,9,42.77811111,1.734896147,734,Commune simple,89,ARIEGE,0,35,0,0,0,0,16,4,12,0,0,4,8,0,0,4,0,17,17,,,,,,,4,12,16,,,,,,
USSAT,9321,9,42.83454894,1.6206297,681,Commune simple,434,ARIEGE,4,345,150,324,228,21564,94,10,73,10,5,25,46,0,5,10,27,82,109,,,,,,,8,100,108,,,,,,
USTOU,9322,9,42.77313266,1.263363068,1404,Commune simple,9911,ARIEGE,62,311,154,291,215,15810,117,45,41,31,10,10,30,10,30,25,56,48,104,,,,,,,65,50,115,,,,,,
VALS,9323,9,43.10139895,1.754993189,294,Commune simple,413,ARIEGE,1,93,0,0,0,0,59,9,41,9,0,15,33,0,9,0,4,36,40,,,,,,,9,48,57,,,,,,
VARILHES,9324,9,43.05453572,1.634143622,346,Commune simple,1170,ARIEGE,330,3328,1475,3256,2263,20111,1324,225,958,142,129,319,592,35,89,167,310,843,1154,2,,11386,,214,,333,967,1300,2,,13594,,252,
VAYCHIS,9325,9,42.74433856,1.82051103,1179,Commune simple,458,ARIEGE,1,25,0,0,0,0,5,5,0,0,0,0,0,0,5,0,0,16,16,,,,,,,5,0,5,,,,,,
VEBRE,9326,9,42.7699924,1.717113062,866,Commune simple,523,ARIEGE,8,128,63,132,94,18821,60,0,45,15,5,20,30,5,0,0,17,47,64,,,,,,,5,56,61,,,,,,
VENTENAC,9327,9,42.99696451,1.722476526,545,Commune simple,1990,ARIEGE,4,229,101,219,154,16218,128,5,98,25,10,45,45,0,25,5,16,60,76,,,,,,,25,74,98,,,,,,
VERDUN,9328,9,42.80503865,1.692535884,967,Commune simple,1172,ARIEGE,1,224,106,225,159,20204,50,5,40,5,0,25,20,0,5,0,8,48,56,,,,,,,5,45,50,,,,,,
VERNAJOUL,9329,9,42.99285967,1.592814924,470,Commune simple,908,ARIEGE,13,652,289,678,466,21041,276,44,208,25,40,40,138,0,35,24,44,224,268,1,,1210,,37,,60,219,279,1,,1178,,36,
VERNAUX,9330,9,42.78605452,1.780813403,1320,Commune simple,610,ARIEGE,2,31,0,0,0,0,11,0,11,0,0,5,5,0,0,0,0,8,8,,,,,,,4,15,19,,,,,,
LE VERNET,9331,9,43.18720002,1.602737139,282,Commune simple,568,ARIEGE,32,654,257,668,436,18581,261,52,156,52,24,58,97,15,43,29,45,217,262,,,,,,,56,212,268,,,,,,
VERNIOLLE,9332,9,43.08140596,1.661646448,348,Commune simple,1145,ARIEGE,340,2359,945,2332,1564,21636,925,126,718,81,135,267,347,35,80,55,168,756,924,1,1,7176,2822,126,49,174,761,935,2,1,10426,3480,181,60
VICDESSOS,9334,9,42.77288658,1.510815652,836,Commune simple,620,ARIEGE,51,536,185,402,284,19285,165,30,90,45,15,40,45,20,15,30,80,124,204,,,,,,,65,100,165,,,,,,
VILLENEUVE,9335,9,42.94965318,0.984522722,787,Commune simple,511,ARIEGE,1,39,0,0,0,0,15,0,15,0,5,5,5,0,0,0,0,4,4,,,,,,,0,15,15,,,,,,
VILLENEUVE D'OLMES,9336,9,42.91064544,1.818975046,612,Commune simple,601,ARIEGE,86,1029,494,1044,750,17124,303,62,236,5,0,91,142,5,30,30,128,291,419,,,,,,,97,202,300,,,,,,
VILLENEUVE DU LATOU,9338,9,43.20474624,1.433349468,291,Commune simple,660,ARIEGE,10,148,59,146,97,19114,60,15,25,20,10,10,10,5,15,10,19,45,64,,,,,,,29,29,58,,,,,,
VILLENEUVE DU PAREAGE,9339,9,43.15964579,1.642786544,278,Commune simple,1151,ARIEGE,40,783,296,745,496,21086,340,5,315,20,20,55,242,0,15,5,52,261,313,1,,1504,,41,,50,306,356,1,,1608,,44,
VIRA,9340,9,43.04832091,1.75606543,370,Commune simple,531,ARIEGE,3,166,74,164,116,20093,54,5,44,5,0,10,35,0,0,10,4,68,72,,,,,,,10,45,55,,,,,,
VIVIES,9341,9,43.06182507,1.777583844,369,Commune simple,442,ARIEGE,2,119,38,103,66,17655,44,5,39,0,5,5,30,0,0,5,12,28,40,,,,,,,5,40,45,,,,,,
SAINTE SUZANNE,9342,9,43.20571522,1.379790188,261,Commune simple,1040,ARIEGE,6,234,102,232,161,18712,104,8,56,40,0,16,40,0,40,8,12,74,86,,,,,,,48,56,104,,,,,,
AIGUES VIVES,11001,11,43.23542139,2.533650421,66,Commune simple,1056,AUDE,47,552,235,544,369,16108,240,90,130,20,5,35,90,10,30,70,92,124,215,,,,,,,107,126,233,,,,,,
AIROUX,11002,11,43.36709495,1.873856888,190,Commune simple,564,AUDE,5,159,58,156,101,19912,53,4,41,8,16,12,16,0,4,4,12,45,57,,,,,,,8,45,53,,,,,,
AJAC,11003,11,43.04572373,2.135721591,280,Commune simple,543,AUDE,7,193,99,187,138,17369,100,5,75,20,5,25,45,0,20,5,17,69,86,,,,,,,25,75,101,,,,,,
ALAIGNE,11004,11,43.09719826,2.091801645,325,Commune simple,1440,AUDE,33,335,129,275,195,15153,130,10,80,40,0,35,55,5,25,10,56,60,116,,,,,,,41,91,132,,,,,,
ALAIRAC,11005,11,43.18190667,2.235731408,232,Commune simple,1665,AUDE,37,1322,466,1202,784,19609,535,60,425,50,45,190,205,20,35,40,101,460,561,1,,6724,,180,,95,440,535,1,,6828,,182,
ALBAS,11006,11,43.00572051,2.726380871,313,Commune simple,2288,AUDE,2,76,0,0,0,0,20,20,0,0,0,0,0,5,15,0,24,12,36,,,,,,,20,0,20,,,,,,
ALBIERES,11007,11,42.94664473,2.446095539,571,Commune simple,1745,AUDE,2,113,0,0,0,0,61,0,35,25,0,25,15,0,15,5,16,0,16,,,,,,,20,40,60,,,,,,
ALET LES BAINS,11008,11,42.99401677,2.257598941,385,Commune simple,2427,AUDE,31,441,204,394,292,16971,146,31,72,43,8,12,60,16,24,28,64,104,168,,,,,,,68,79,147,,,,,,
ALZONNE,11009,11,43.26562655,2.174839746,146,Commune simple,2229,AUDE,148,1515,604,1361,934,16812,526,87,316,122,35,76,219,25,56,112,202,308,510,1,,5234,,111,,215,333,548,1,,6542,,138,
ANTUGNAC,11010,11,42.96121525,2.217672815,404,Commune simple,988,AUDE,13,305,130,302,208,18626,133,37,96,0,10,31,52,0,20,16,8,90,98,,,,,,,39,101,141,,,,,,
ARAGON,11011,11,43.29747903,2.308529344,244,Commune simple,2147,AUDE,18,427,206,444,312,18783,205,25,170,10,10,90,75,5,5,20,40,154,194,,,,,,,30,173,202,,,,,,
ARGELIERS,11012,11,43.31081461,2.911102581,49,Commune simple,1094,AUDE,90,2070,827,2000,1340,17993,728,124,505,99,60,160,325,30,55,105,209,386,595,1,,5858,,140,,186,534,721,1,,8690,,208,
ARGENS MINERVOIS,11013,11,43.24612271,2.768983088,46,Commune simple,465,AUDE,33,361,161,342,244,19379,120,25,65,30,12,31,30,4,26,16,59,111,170,,,,,,,47,75,123,,,,,,
ARMISSAN,11014,11,43.18736359,3.089795714,64,Commune simple,1250,AUDE,51,1540,634,1533,1035,20048,546,99,368,79,92,140,164,20,72,64,140,445,586,1,,7264,,178,,156,395,551,1,,6454,,158,
ARQUES,11015,11,42.94734481,2.386614095,495,Commune simple,1902,AUDE,25,241,95,215,146,15680,72,32,24,16,4,12,8,4,32,12,60,40,100,,,,,,,48,24,72,,,,,,
ARQUETTES EN VAL,11016,11,43.10481625,2.496712296,300,Commune simple,963,AUDE,10,78,0,0,0,0,30,10,10,10,0,5,5,0,15,5,28,20,48,,,,,,,20,10,30,,,,,,
ARTIGUES,11017,11,42.79070451,2.207184491,707,Commune simple,656,AUDE,1,77,0,0,0,0,20,0,20,0,0,0,20,0,0,0,8,29,37,,,,,,,0,21,21,,,,,,
ARZENS,11018,11,43.20100074,2.204525665,203,Commune simple,2189,AUDE,116,1224,519,1251,842,19208,520,95,335,90,40,100,225,15,65,75,139,397,535,1,,7096,,154,,153,360,513,1,,6310,,137,
AUNAT,11019,11,42.7890494,2.100660912,987,Commune simple,1084,AUDE,1,55,0,0,0,0,10,5,5,0,5,0,0,0,5,0,0,4,4,,,,,,,4,4,9,,,,,,
AURIAC,11020,11,42.9255891,2.494830174,608,Commune simple,2152,AUDE,1,39,0,0,0,0,15,5,5,5,0,0,5,5,0,5,4,9,13,,,,,,,9,5,14,,,,,,
AXAT,11021,11,42.79763868,2.239229914,644,Commune simple,1204,AUDE,45,610,252,502,366,16134,183,68,42,74,15,15,20,22,26,85,151,67,219,,,,,,,138,54,192,,,,,,
AZILLE,11022,11,43.27421548,2.657006991,72,Commune simple,2438,AUDE,65,1159,517,1111,782,17385,519,115,304,100,65,74,180,50,80,70,160,204,364,,,,,,,200,319,519,,,,,,
BADENS,11023,11,43.22130702,2.505013557,95,Commune simple,994,AUDE,68,797,273,678,453,18282,311,69,212,30,40,65,110,25,28,40,120,188,308,,,,,,,93,215,308,,,,,,
BAGES,11024,11,43.1176598,2.977567716,37,Commune simple,2234,AUDE,75,871,374,848,587,18111,364,67,221,76,36,87,114,20,40,67,117,246,363,1,,2792,,79,,127,239,366,1,,3854,,109,
BAGNOLES,11025,11,43.26686925,2.447912642,155,Commune simple,581,AUDE,12,299,116,301,194,16509,107,20,66,20,15,5,45,10,5,25,24,76,100,,,,,,,40,65,105,,,,,,
BARAIGNE,11026,11,43.33150269,1.822292633,241,Commune simple,472,AUDE,3,172,70,166,111,20100,105,10,70,25,15,40,35,0,15,0,4,67,71,,,,,,,15,90,105,,,,,,
BARBAIRA,11027,11,43.17613134,2.514355365,194,Commune simple,938,AUDE,37,731,299,756,498,17402,223,35,148,39,15,60,82,10,35,19,76,168,244,,,,,,,64,157,221,,,,,,
BELCAIRE,11028,11,42.8316944,1.944993213,1099,Commune simple,3188,AUDE,35,416,189,389,280,17221,125,30,70,25,5,25,40,10,0,45,97,85,181,,,,,,,59,74,133,,,,,,
BELCASTEL ET BUC,11029,11,43.02796145,2.350220774,499,Commune simple,1458,AUDE,1,64,0,0,0,0,10,5,5,0,0,5,0,0,5,0,4,16,20,,,,,,,5,5,11,,,,,,
BELFLOU,11030,11,43.31902873,1.798117115,245,Commune simple,934,AUDE,9,129,38,108,68,21072,57,8,29,20,16,4,8,8,16,4,20,36,56,,,,,,,30,30,60,,,,,,
BELFORT SUR REBENTY,11031,11,42.82893522,2.049276668,820,Commune simple,524,AUDE,3,37,0,0,0,0,13,0,13,0,0,7,7,0,0,0,0,12,12,,,,,,,0,8,8,,,,,,
BELLEGARDE DU RAZES,11032,11,43.10775068,2.05088054,302,Commune simple,681,AUDE,12,227,97,228,155,16419,76,17,42,17,4,25,12,12,16,4,12,41,53,,,,,,,33,42,75,,,,,,
BELPECH,11033,11,43.20384553,1.763294619,280,Commune simple,4385,AUDE,118,1299,544,1223,844,18083,490,135,235,120,25,70,155,35,70,135,203,251,453,,,,,,,244,254,497,,,,,,
BELVEZE DU RAZES,11034,11,43.12349918,2.091805137,260,Commune simple,459,AUDE,53,870,399,858,602,16618,257,45,139,73,25,30,95,15,30,64,128,144,272,,,,,,,109,150,259,,,,,,
BELVIANES ET CAVIRAC,11035,11,42.84670417,2.21168934,549,Commune simple,1195,AUDE,8,285,131,267,194,15563,70,16,43,11,5,10,31,5,11,5,44,36,81,,,,,,,39,67,107,,,,,,
BELVIS,11036,11,42.8560562,2.074709698,933,Commune simple,2425,AUDE,6,160,82,156,116,15982,61,15,34,11,4,8,23,4,16,8,40,12,52,,,,,,,28,36,64,,,,,,
BERRIAC,11037,11,43.21453996,2.404141177,113,Commune simple,268,AUDE,32,878,305,813,530,15369,228,36,156,36,8,56,124,0,16,24,93,257,350,1,,3438,,94,,40,188,228,1,,2066,,57,
BESSEDE DE SAULT,11038,11,42.78433173,2.138927767,936,Commune simple,1548,AUDE,3,63,0,0,0,0,18,12,0,6,0,0,0,6,12,0,8,12,20,,,,,,,4,9,13,,,,,,
LA BEZOLE,11039,11,43.02872458,2.095148851,469,Commune simple,669,AUDE,2,40,0,0,0,0,19,4,11,4,4,4,4,0,4,4,8,16,23,,,,,,,8,12,20,,,,,,
BIZANET,11040,11,43.14870824,2.869332379,87,Commune simple,3758,AUDE,83,1558,682,1636,1091,18490,653,126,388,139,54,147,227,38,84,100,138,402,540,1,,10416,,234,,218,420,638,1,,10070,,226,
BIZE MINERVOIS,11041,11,43.33008675,2.871554213,119,Commune simple,2099,AUDE,95,1110,495,1068,752,17612,375,106,219,50,45,75,114,25,85,30,100,208,308,,,,,,,140,234,374,,,,,,
BLOMAC,11042,11,43.21414258,2.587926828,63,Commune simple,848,AUDE,12,221,98,212,147,16686,63,10,39,15,0,15,30,0,15,5,21,58,79,,,,,,,12,56,68,,,,,,
BOUILHONNAC,11043,11,43.2329007,2.444778199,118,Commune simple,615,AUDE,4,237,95,220,151,21536,88,4,72,12,16,16,52,0,4,0,24,73,97,,,,,,,4,84,88,,,,,,
BOUISSE,11044,11,42.9843654,2.434654378,669,Commune simple,2628,AUDE,1,91,50,96,71,12945,20,12,4,4,0,4,0,0,12,4,16,0,16,,,,,,,16,4,20,,,,,,
BOURIEGE,11045,11,42.99607391,2.160901346,421,Commune simple,1092,AUDE,9,118,56,114,82,13185,55,20,15,20,5,15,0,5,25,5,24,32,56,,,,,,,35,20,55,,,,,,
BOURIGEOLE,11046,11,42.98558585,2.125235221,475,Commune simple,933,AUDE,1,50,0,0,0,0,25,15,10,0,0,0,10,5,5,5,16,12,28,,,,,,,15,10,25,,,,,,
LE BOUSQUET,11047,11,42.71690612,2.175389185,1546,Commune simple,2608,AUDE,1,42,0,0,0,0,8,0,0,8,0,0,0,0,4,4,16,8,23,,,,,,,8,0,8,,,,,,
BOUTENAC,11048,11,43.14547659,2.797083812,99,Commune simple,2322,AUDE,41,703,307,702,481,17938,221,49,133,39,15,55,80,0,50,25,106,163,269,,,,,,,116,156,272,,,,,,
BRAM,11049,11,43.25070359,2.110480746,136,Commune simple,1784,AUDE,480,3308,1426,3186,2202,18520,1094,229,606,259,95,243,324,65,117,244,489,617,1106,2,1,15116,6928,246,110,435,679,1114,2,1,17540,5210,283,83
BREZILHAC,11051,11,43.16787967,2.076376442,260,Commune simple,727,AUDE,7,171,61,164,107,16615,64,0,40,25,15,10,20,5,5,10,33,25,59,,,,,,,19,34,53,,,,,,
BROUSSES ET VILLARET,11052,11,43.34342732,2.242511763,411,Commune simple,1155,AUDE,10,346,146,331,229,17559,148,24,108,16,20,40,52,16,12,8,40,68,107,,,,,,,36,113,149,,,,,,
BRUGAIROLLES,11053,11,43.13518887,2.160105203,235,Commune simple,890,AUDE,34,259,114,272,185,16879,81,24,44,12,4,16,24,12,16,8,36,53,89,,,,,,,36,44,80,,,,,,
LES BRUNELS,11054,11,43.411518,2.047034818,549,Commune simple,1229,AUDE,14,272,121,276,191,19678,83,0,71,12,12,28,32,4,0,4,25,62,87,,,,,,,8,74,82,,,,,,
BUGARACH,11055,11,42.87782341,2.35065565,629,Commune simple,2756,AUDE,5,230,95,192,139,12355,48,10,23,15,15,5,9,0,10,10,40,20,60,,,,,,,20,29,49,,,,,,
CABRESPINE,11056,11,43.37637987,2.471886617,603,Commune simple,1812,AUDE,19,169,68,135,99,14686,49,5,25,20,5,10,20,0,10,5,20,16,36,,,,,,,20,24,44,,,,,,
CAHUZAC,11057,11,43.19103158,1.852793272,308,Commune simple,314,AUDE,1,35,0,0,0,0,21,0,21,0,0,8,12,0,0,0,8,12,19,,,,,,,0,20,20,,,,,,
CAILHAU,11058,11,43.14559643,2.13036095,236,Commune simple,1010,AUDE,5,266,109,268,182,20031,65,5,30,30,0,10,35,20,0,0,32,36,67,,,,,,,20,45,65,,,,,,
CAILHAVEL,11059,11,43.16670452,2.12347528,229,Commune simple,563,AUDE,9,121,54,131,86,19858,42,4,25,13,0,21,4,4,12,0,12,32,44,,,,,,,17,25,41,,,,,,
CAILLA,11060,11,42.81081228,2.198273626,630,Commune simple,773,AUDE,3,50,0,0,0,0,15,0,10,5,0,0,10,0,0,5,12,4,16,,,,,,,5,10,15,,,,,,
CAMBIEURE,11061,11,43.12651737,2.126264205,209,Commune simple,337,AUDE,18,319,125,307,206,19734,93,5,83,5,15,36,31,5,0,5,20,96,116,,,,,,,44,84,128,,,,,,
CAMPAGNA DE SAULT,11062,11,42.75860194,2.042141778,1433,Commune simple,1079,AUDE,1,18,0,0,0,0,0,0,0,0,0,0,0,0,0,0,8,4,12,,,,,,,0,0,0,,,,,,
CAMPAGNE SUR AUDE,11063,11,42.91578207,2.201643104,325,Commune simple,614,AUDE,46,587,286,597,428,16485,192,19,144,30,10,29,115,0,14,24,64,132,196,,,,,,,40,158,198,,,,,,
CAMPLONG D'AUDE,11064,11,43.13332912,2.653722705,152,Commune simple,1264,AUDE,23,347,149,334,229,14880,170,25,115,30,10,25,85,10,15,25,11,84,96,,,,,,,49,118,167,,,,,,
CAMPS SUR L'AGLY,11065,11,42.86329325,2.418837797,671,Commune simple,2655,AUDE,2,61,0,0,0,0,5,0,0,5,0,0,0,0,5,0,16,4,20,,,,,,,8,0,8,,,,,,
CAMURAC,11066,11,42.79824904,1.924404723,1362,Commune simple,1155,AUDE,8,107,57,93,74,13296,15,0,0,15,0,0,0,10,0,5,17,17,33,,,,,,,16,0,16,,,,,,
CANET,11067,11,43.22657048,2.830657401,28,Commune simple,1402,AUDE,67,1671,698,1648,1108,17637,587,113,390,84,49,159,209,12,87,67,158,410,568,1,,8332,,173,,164,410,574,1,,9154,,190,
CAPENDU,11068,11,43.18467388,2.553439789,96,Commune simple,1597,AUDE,234,1532,653,1472,1019,16746,515,120,250,145,15,105,190,15,85,105,219,370,589,1,,10050,,166,,210,318,528,1,,8692,,144,
CARCASSONNE,11069,11,43.20919549,2.344223207,127,Préfecture de département,6514,AUDE,9354,45941,21540,45556,32079,17156,15219,9386,2139,3693,550,875,1185,2126,3727,6753,14203,3048,17251,8,40,123296,331938,1795,7047,12752,2687,15439,7,39,92922,311858,1407,6793
CARLIPA,11070,11,43.30564523,2.121222696,175,Commune simple,550,AUDE,10,325,144,316,219,16757,103,10,79,15,5,35,40,5,10,10,24,95,118,,,,,,,24,77,101,,,,,,
CASCASTEL DES CORBIERES,11071,11,42.98028421,2.747063886,257,Commune simple,1571,AUDE,20,231,88,191,135,14032,98,15,51,31,0,20,41,0,10,25,24,40,64,,,,,,,46,50,96,,,,,,
LA CASSAIGNE,11072,11,43.1961205,1.989155778,298,Commune simple,1251,AUDE,9,210,79,198,133,18214,87,17,64,6,0,24,42,0,18,6,0,52,52,,,,,,,20,55,75,,,,,,
CASSAIGNES,11073,11,42.94815331,2.297533402,388,Commune simple,389,AUDE,2,49,0,0,0,0,19,4,15,0,4,4,8,0,4,0,17,13,30,,,,,,,4,15,19,,,,,,
LES CASSES,11074,11,43.42638382,1.866088867,257,Commune simple,728,AUDE,8,274,94,248,160,19491,117,19,88,10,15,30,50,10,5,10,14,72,87,,,,,,,24,89,113,,,,,,
CASTANS,11075,11,43.41536027,2.488278803,836,Commune simple,1737,AUDE,14,108,64,116,88,14517,22,9,4,9,0,4,9,0,8,0,16,25,41,,,,,,,16,20,36,,,,,,
CASTELNAUDARY,11076,11,43.32320786,1.960890753,166,Commune simple,4789,AUDE,2017,11096,4670,9946,6991,17654,3760,1659,864,1237,188,302,545,585,566,1576,2954,1033,3988,2,10,42660,50524,531,800,2665,1045,3710,2,11,39886,41500,497,716
CASTELNAU D'AUDE,11077,11,43.23358375,2.677796379,62,Commune simple,747,AUDE,19,487,212,476,330,17370,165,35,100,30,10,10,90,5,20,30,54,100,154,,,,,,,55,110,164,,,,,,
CASTELRENG,11078,11,43.02113313,2.127306061,359,Commune simple,1133,AUDE,7,190,87,206,139,15934,71,9,57,5,5,38,15,15,0,0,21,63,84,,,,,,,35,58,92,,,,,,
CAUDEBRONDE,11079,11,43.38812467,2.302350374,680,Commune simple,652,AUDE,8,190,73,168,115,19913,65,5,55,5,20,10,30,0,5,0,23,54,76,,,,,,,5,60,65,,,,,,
VAL DE LAMBRONNE,11080,11,43.07558874,1.987670031,385,Commune simple,727,AUDE,5,206,61,143,99,17048,81,12,48,21,8,4,36,12,17,4,12,37,49,,,,,,,33,48,81,,,,,,
CAUNES MINERVOIS,11081,11,43.3329441,2.515923906,326,Commune simple,2870,AUDE,122,1664,683,1487,1045,16570,555,135,300,120,30,80,210,50,85,100,131,376,507,1,,8666,,202,,237,323,559,1,,7734,,181,
CAUNETTE SUR LAUQUET,11082,11,43.0281523,2.424272999,555,Commune simple,511,AUDE,1,6,0,0,0,0,15,5,5,5,0,5,5,0,5,0,3,0,3,,,,,,,8,15,23,,,,,,
CAUNETTES EN VAL,11083,11,43.06393041,2.563104129,249,Commune simple,874,AUDE,0,49,0,0,0,0,25,5,10,10,0,10,10,0,5,0,4,12,17,,,,,,,5,21,26,,,,,,
CAUX ET SAUZENS,11084,11,43.22604853,2.254387419,138,Commune simple,919,AUDE,32,918,377,938,624,18927,405,40,307,58,58,101,157,13,45,27,72,265,337,1,,3100,,83,,83,314,397,1,,3386,,91,
CAVANAC,11085,11,43.16892864,2.335365657,159,Commune simple,895,AUDE,47,898,378,933,626,19308,394,45,279,69,44,76,197,15,45,15,80,268,348,1,,2964,,90,,75,316,391,1,,3188,,96,
CAVES,11086,11,42.93763353,2.958848287,96,Commune simple,903,AUDE,40,812,339,849,561,17019,258,44,200,15,25,70,119,5,15,30,80,210,290,,,,,,,47,203,251,,,,,,
CAZALRENOUX,11087,11,43.18902706,1.946314043,326,Commune simple,1375,AUDE,4,84,0,0,0,0,28,0,19,9,10,10,0,0,9,0,0,24,24,,,,,,,17,17,33,,,,,,
CAZILHAC,11088,11,43.17798944,2.359169514,151,Commune simple,412,AUDE,44,1652,713,1693,1158,22228,651,70,541,40,85,206,280,10,30,40,96,496,592,1,,5464,,152,,80,570,650,1,,6394,,178,
CENNE MONESTIES,11089,11,43.3237042,2.129629377,218,Commune simple,779,AUDE,24,396,166,383,261,19598,135,5,110,20,30,45,50,5,5,0,36,72,108,,,,,,,10,124,134,,,,,,
CEPIE,11090,11,43.10765269,2.238091576,218,Commune simple,684,AUDE,41,665,250,611,412,19866,243,21,152,70,24,32,109,12,24,36,69,162,231,,,,,,,73,165,238,,,,,,
CHALABRE,11091,11,42.9817511,2.011699557,460,Commune simple,1605,AUDE,157,1107,471,929,677,16699,308,137,96,75,12,24,72,24,72,104,245,109,354,,,,,,,200,108,308,,,,,,
CITOU,11092,11,43.37624927,2.532665981,542,Commune simple,1765,AUDE,2,82,0,0,0,0,29,10,14,5,0,10,5,5,0,10,20,12,32,,,,,,,14,14,27,,,,,,
LE CLAT,11093,11,42.7880367,2.174874218,1071,Commune simple,1056,AUDE,1,31,0,0,0,0,21,0,5,15,0,0,10,0,10,0,0,0,0,,,,,,,10,10,20,,,,,,
CLERMONT SUR LAUQUET,11094,11,43.04608315,2.430052718,490,Commune simple,1872,AUDE,1,27,0,0,0,0,0,0,0,0,0,0,0,0,0,0,0,0,0,,,,,,,0,0,0,,,,,,
COMIGNE,11095,11,43.16531554,2.584820153,206,Commune simple,961,AUDE,9,306,128,315,212,18439,120,5,105,10,10,35,60,5,5,5,25,67,92,,,,,,,15,104,119,,,,,,
COMUS,11096,11,42.82748921,1.88906536,1276,Commune simple,1445,AUDE,3,38,0,0,0,0,30,0,25,5,10,5,15,0,0,0,5,5,9,,,,,,,0,27,27,,,,,,
CONILHAC DE LA MONTAGNE,11097,11,42.97908354,2.205399034,476,Commune simple,464,AUDE,6,65,0,0,0,0,34,0,25,10,0,10,15,0,10,0,4,26,30,,,,,,,20,28,48,,,,,,
CONILHAC CORBIERES,11098,11,43.18480925,2.715986663,95,Commune simple,1226,AUDE,40,926,362,869,585,18420,340,65,245,30,70,50,145,20,25,30,54,238,292,1,,1180,,26,,75,267,342,1,,1448,,32,
CONQUES SUR ORBIEL,11099,11,43.28354119,2.384498885,171,Commune simple,2590,AUDE,131,2437,1002,2328,1585,18622,907,136,604,166,98,217,353,49,84,113,258,635,893,1,,12020,,352,,278,718,996,1,,13386,,392,
CORBIERES,11100,11,43.04488275,1.99879089,482,Commune simple,877,AUDE,1,35,0,0,0,0,11,0,6,6,0,0,6,0,6,0,4,4,8,,,,,,,6,6,13,,,,,,
COUDONS,11101,11,42.86334891,2.119539821,980,Commune simple,973,AUDE,2,51,0,0,0,0,10,5,5,0,0,5,0,0,5,0,4,0,4,,,,,,,5,5,9,,,,,,
COUFFOULENS,11102,11,43.15444127,2.304764459,151,Commune simple,1009,AUDE,41,622,263,622,421,19926,229,25,183,20,30,75,86,10,20,5,46,211,257,1,,2618,,68,,36,197,233,1,,2134,,56,
COUIZA,11103,11,42.93499476,2.269657559,350,Commune simple,694,AUDE,145,1135,487,1033,732,16826,350,90,140,120,10,25,130,35,25,125,160,160,320,,,,,,,189,168,357,,,,,,
COUNOZOULS,11104,11,42.70113993,2.229224212,1489,Commune simple,2795,AUDE,3,45,0,0,0,0,10,5,5,0,0,5,0,0,5,0,0,8,8,,,,,,,5,5,10,,,,,,
COURNANEL,11105,11,43.02961768,2.234695357,249,Commune simple,643,AUDE,40,667,291,698,472,19908,302,39,234,29,34,108,98,5,35,25,78,219,297,1,,1816,,60,,62,232,294,1,,1924,,64,
COURSAN,11106,11,43.24722315,3.057944255,5,Commune simple,2456,AUDE,353,5916,2516,5841,4005,18159,2045,370,1265,410,170,500,725,70,255,325,600,1566,2166,1,1,24880,3506,840,115,658,1412,2070,2,1,27584,4648,867,152
COURTAULY,11107,11,43.04105247,2.045515885,484,Commune simple,781,AUDE,2,69,0,0,0,0,19,4,12,4,8,0,4,0,8,0,8,12,21,,,,,,,8,11,19,,,,,,
LA COURTETE,11108,11,43.14122607,2.030944871,287,Commune simple,567,AUDE,7,43,0,0,0,0,8,4,0,4,0,0,0,0,4,4,17,4,21,,,,,,,8,0,8,,,,,,
COUSTAUSSA,11109,11,42.93708661,2.285342572,372,Commune simple,468,AUDE,2,50,0,0,0,0,16,0,16,0,4,0,12,0,0,0,0,8,8,,,,,,,0,16,16,,,,,,
COUSTOUGE,11110,11,43.05700266,2.743991446,238,Commune simple,974,AUDE,2,124,57,124,86,12669,52,13,26,13,0,4,20,4,17,4,29,8,38,,,,,,,25,25,51,,,,,,
CRUSCADES,11111,11,43.19965091,2.817266518,36,Commune simple,975,AUDE,59,779,294,805,507,17897,275,40,195,40,30,65,120,10,20,30,43,141,183,,,,,,,55,199,254,,,,,,
CUBIERES SUR CINOBLE,11112,11,42.86281657,2.465633354,586,Commune simple,1484,AUDE,3,100,0,0,0,0,44,5,30,9,10,5,14,0,5,9,20,8,28,,,,,,,14,29,43,,,,,,
CUCUGNAN,11113,11,42.85141325,2.610946925,414,Commune simple,1511,AUDE,35,131,61,131,91,16883,89,26,31,31,0,5,25,10,15,31,50,0,50,,,,,,,39,24,63,,,,,,
CUMIES,11114,11,43.29920265,1.833054209,261,Commune simple,405,AUDE,2,36,0,0,0,0,15,0,15,0,0,0,15,0,0,0,11,4,15,,,,,,,0,15,15,,,,,,
CUXAC CABARDES,11115,11,43.39094327,2.278338989,680,Commune simple,2561,AUDE,100,909,325,720,498,17934,297,86,156,55,10,65,85,15,50,70,135,185,320,,,,,,,137,162,298,,,,,,
CUXAC D'AUDE,11116,11,43.25773682,3.005771258,9,Commune simple,2180,AUDE,288,3948,1788,4149,2844,17257,1293,231,786,276,139,307,428,55,105,268,490,1062,1552,1,1,17542,3420,485,94,493,837,1330,1,1,13292,4196,367,115
DAVEJEAN,11117,11,42.95874382,2.606217845,452,Commune simple,1365,AUDE,1,116,55,115,81,12994,30,0,15,15,0,5,10,0,10,5,21,21,42,,,,,,,4,20,24,,,,,,
DERNACUEILLETTE,11118,11,42.92864845,2.597971024,453,Commune simple,791,AUDE,1,43,0,0,0,0,15,5,10,0,0,5,5,0,0,5,12,4,16,,,,,,,5,10,15,,,,,,
LA DIGNE D'AMONT,11119,11,43.03881091,2.16192023,259,Commune simple,376,AUDE,7,288,130,274,196,18961,100,20,60,20,20,25,25,0,15,15,24,86,110,,,,,,,30,71,101,,,,,,
LA DIGNE D'AVAL,11120,11,43.04636666,2.180787799,247,Commune simple,322,AUDE,17,542,211,490,338,20054,225,30,185,10,25,45,115,15,15,10,49,180,229,1,,1228,,48,,40,184,223,1,,1648,,64,
DONAZAC,11121,11,43.079775,2.118854218,284,Commune simple,520,AUDE,16,103,49,107,75,16451,46,4,34,8,0,21,12,0,12,0,20,31,51,,,,,,,12,33,45,,,,,,
DOUZENS,11122,11,43.18019812,2.610822538,146,Commune simple,1472,AUDE,57,710,301,671,466,16885,323,78,152,93,25,40,118,30,55,60,104,128,232,,,,,,,76,209,286,,,,,,
DUILHAC SOUS PEYREPERTUSE,11123,11,42.86468846,2.567078931,471,Commune simple,2122,AUDE,20,149,67,137,98,13463,60,20,20,20,4,8,12,12,12,12,13,21,34,,,,,,,36,24,61,,,,,,
DURBAN CORBIERES,11124,11,42.99792772,2.812432513,190,Commune simple,2567,AUDE,88,647,294,606,434,16940,209,105,45,60,5,20,25,0,45,115,140,64,204,,,,,,,160,50,210,,,,,,
EMBRES ET CASTELMAURE,11125,11,42.92949415,2.81827364,331,Commune simple,3269,AUDE,18,153,83,129,105,16042,64,28,20,16,0,0,20,8,16,20,42,29,72,,,,,,,44,20,64,,,,,,
ESCALES,11126,11,43.22269516,2.70767722,83,Commune simple,1039,AUDE,32,446,190,449,305,15833,158,46,100,12,12,24,66,13,20,21,64,64,129,,,,,,,54,103,157,,,,,,
ESCOULOUBRE,11127,11,42.73173982,2.131868642,1293,Commune simple,3233,AUDE,5,77,0,0,0,0,20,0,5,15,5,0,0,0,0,15,8,4,12,,,,,,,15,5,20,,,,,,
ESCUEILLENS ET SAINT JUST DE BELENGARD,11128,11,43.10080657,2.020933767,359,Commune simple,1169,AUDE,10,171,73,155,111,16480,51,12,28,12,4,4,24,0,12,8,25,20,45,,,,,,,20,32,52,,,,,,
ESPERAZA,11129,11,42.93105616,2.221771295,320,Commune simple,1059,AUDE,199,1960,966,1902,1388,16103,446,103,190,152,10,65,166,34,49,125,312,240,552,,,,,,,208,242,450,,,,,,
ESPEZEL,11130,11,42.84265195,2.025794611,899,Commune simple,1456,AUDE,30,198,100,187,139,18439,59,10,30,20,5,20,15,5,15,0,20,48,68,,,,,,,20,40,60,,,,,,
FA,11131,11,42.9280483,2.180142298,381,Commune simple,1194,AUDE,10,362,149,327,229,14997,125,15,95,15,20,50,30,10,10,5,35,85,119,,,,,,,26,103,129,,,,,,
FABREZAN,11132,11,43.12612525,2.70596807,118,Commune simple,2894,AUDE,78,1301,557,1247,863,17035,503,124,289,90,60,85,164,35,95,65,176,248,424,,,,,,,195,309,504,,,,,,
FAJAC EN VAL,11133,11,43.12101196,2.463330846,418,Commune simple,1405,AUDE,3,37,0,0,0,0,15,0,10,5,0,0,10,0,0,5,3,7,10,,,,,,,5,10,15,,,,,,
FAJAC LA RELENQUE,11134,11,43.28174167,1.728176455,268,Commune simple,373,AUDE,3,49,0,0,0,0,26,10,15,0,0,10,5,0,10,0,0,8,8,,,,,,,10,15,25,,,,,,
LA FAJOLLE,11135,11,42.75208084,1.965010244,1564,Commune simple,1579,AUDE,1,10,0,0,0,0,0,0,0,0,0,0,0,0,0,0,4,4,9,,,,,,,0,0,0,,,,,,
FANJEAUX,11136,11,43.18640857,2.036097511,271,Commune simple,2489,AUDE,59,804,273,631,436,18185,245,49,103,93,10,50,55,35,74,25,155,172,327,,,,,,,129,110,240,,,,,,
FELINES TERMENES,11137,11,42.98418347,2.614161769,424,Commune simple,1036,AUDE,3,113,59,115,84,15091,50,15,10,25,0,0,25,0,10,15,16,16,32,,,,,,,25,25,50,,,,,,
FENDEILLE,11138,11,43.27148582,1.948631874,206,Commune simple,734,AUDE,50,579,225,579,380,19420,275,53,190,32,5,74,133,11,20,31,56,200,256,1,,1902,,44,,16,248,264,1,,2488,,58,
FENOUILLET DU RAZES,11139,11,43.15559281,2.031364756,320,Commune simple,759,AUDE,3,92,0,0,0,0,8,0,8,0,4,4,0,0,0,0,20,0,20,,,,,,,0,8,8,,,,,,
FERRALS LES CORBIERES,11140,11,43.14397971,2.739307334,100,Commune simple,1615,AUDE,38,1173,529,1161,813,16572,440,65,270,105,45,90,160,30,50,65,156,222,378,1,,1942,,54,,145,295,440,1,,2500,,69,
FERRAN,11141,11,43.15270005,2.089845227,245,Commune simple,613,AUDE,6,102,0,0,0,0,51,10,31,10,10,15,10,10,5,0,4,52,56,,,,,,,15,35,50,,,,,,
FESTES ET SAINT ANDRE,11142,11,42.96171778,2.115980867,491,Commune simple,1854,AUDE,10,201,86,186,131,12715,60,20,30,10,10,5,15,0,30,0,24,52,77,,,,,,,29,29,58,,,,,,
FEUILLA,11143,11,42.92921442,2.901144173,311,Commune simple,2426,AUDE,3,97,0,0,0,0,43,14,10,19,0,5,5,5,20,10,13,8,21,,,,,,,33,9,42,,,,,,
FITOU,11144,11,42.89602973,2.966477875,95,Commune simple,3046,AUDE,52,1030,466,993,699,18279,370,64,237,69,40,140,95,30,40,30,164,178,342,,,,,,,98,268,366,,,,,,
FLEURY,11145,11,43.21432508,3.176488351,40,Commune simple,5218,AUDE,220,3951,2005,4011,2905,18420,1123,266,664,194,147,227,364,76,158,142,472,556,1027,1,,17068,,470,,637,725,1363,1,,19412,,535,
FLOURE,11146,11,43.1785697,2.485224155,142,Commune simple,462,AUDE,23,402,134,386,240,15345,116,20,76,20,10,20,45,5,30,5,40,104,144,,,,,,,40,75,115,,,,,,
FONTANES DE SAULT,11147,11,42.76771419,2.082012141,1090,Commune simple,555,AUDE,2,5,0,0,0,0,0,0,0,0,0,0,0,0,0,0,0,0,0,,,,,,,0,0,0,,,,,,
FONTCOUVERTE,11148,11,43.16769921,2.686144568,96,Commune simple,1023,AUDE,26,532,227,525,360,18521,232,49,143,39,0,80,80,0,50,25,80,139,220,,,,,,,73,156,229,,,,,,
FONTERS DU RAZES,11149,11,43.23776803,1.922843233,327,Commune simple,1263,AUDE,5,73,0,0,0,0,9,0,9,0,0,0,10,0,0,0,9,26,34,,,,,,,7,33,41,,,,,,
FONTIERS CABARDES,11150,11,43.37512075,2.252447331,636,Commune simple,883,AUDE,14,445,176,428,287,16697,187,49,103,34,15,25,65,10,45,30,33,111,144,,,,,,,45,113,158,,,,,,
FONTIES D'AUDE,11151,11,43.18644806,2.457757047,110,Commune simple,614,AUDE,13,412,207,461,320,17599,184,33,129,22,18,39,81,6,6,37,32,152,184,,,,,,,45,120,165,,,,,,
FONTJONCOUSE,11152,11,43.04453054,2.791774372,265,Commune simple,2774,AUDE,14,145,58,123,87,16613,42,11,16,16,5,0,15,10,0,10,15,34,48,,,,,,,22,22,44,,,,,,
LA FORCE,11153,11,43.19906732,2.083907326,182,Commune simple,473,AUDE,20,213,86,202,139,19659,80,5,65,10,20,30,25,0,5,0,11,68,80,,,,,,,5,74,79,,,,,,
FOURNES CABARDES,11154,11,43.35688427,2.410633197,572,Commune simple,1287,AUDE,1,56,0,0,0,0,22,5,11,5,0,0,10,5,5,0,0,25,25,,,,,,,4,16,20,,,,,,
FOURTOU,11155,11,42.90940239,2.441361134,707,Commune simple,2105,AUDE,3,69,0,0,0,0,25,5,10,10,5,5,5,0,10,0,16,12,28,,,,,,,10,15,25,,,,,,
FRAISSE CABARDES,11156,11,43.3298146,2.271036904,334,Commune simple,753,AUDE,3,107,53,100,75,18196,36,10,20,5,0,5,15,0,10,5,8,24,32,,,,,,,16,21,36,,,,,,
FRAISSE DES CORBIERES,11157,11,42.9617346,2.871462281,271,Commune simple,1908,AUDE,9,234,106,238,166,15089,64,16,40,8,8,20,20,0,12,4,25,46,71,,,,,,,16,48,64,,,,,,
GAJA ET VILLEDIEU,11158,11,43.07996141,2.186384655,214,Commune simple,803,AUDE,15,291,128,320,213,17654,100,20,70,10,5,30,35,5,10,15,52,85,137,,,,,,,30,70,100,,,,,,
GAJA LA SELVE,11159,11,43.19975226,1.883177572,322,Commune simple,1177,AUDE,6,142,61,145,98,14255,59,10,20,30,0,20,5,10,25,0,35,44,79,,,,,,,34,24,58,,,,,,
GALINAGUES,11160,11,42.80661059,2.047976182,949,Commune simple,426,AUDE,4,24,0,0,0,0,12,12,0,0,0,0,0,0,8,4,12,0,12,,,,,,,3,7,10,,,,,,
GARDIE,11161,11,43.07427207,2.297199898,247,Commune simple,480,AUDE,13,120,52,117,80,17436,30,15,15,0,10,5,0,5,0,10,24,24,48,,,,,,,15,15,30,,,,,,
GENERVILLE,11162,11,43.21041349,1.93040084,348,Commune simple,1040,AUDE,5,63,0,0,0,0,31,0,21,10,0,5,15,5,0,5,7,15,22,,,,,,,20,20,41,,,,,,
GINCLA,11163,11,42.7645723,2.332267515,878,Commune simple,788,AUDE,2,47,0,0,0,0,15,5,5,5,0,0,5,0,5,5,22,0,22,,,,,,,10,5,15,,,,,,
GINESTAS,11164,11,43.27565661,2.877315295,50,Commune simple,952,AUDE,157,1341,594,1349,928,18189,447,76,290,81,50,102,153,25,40,86,139,395,534,1,,8810,,204,,149,318,468,1,,6518,,151,
GINOLES,11165,11,42.8645051,2.156809883,481,Commune simple,643,AUDE,14,333,150,305,223,20784,115,20,85,10,30,35,30,15,0,5,20,97,117,,,,,,,21,100,121,,,,,,
GOURVIEILLE,11166,11,43.33649781,1.789208473,237,Commune simple,321,AUDE,3,63,0,0,0,0,42,0,33,9,5,25,10,0,5,0,0,32,32,,,,,,,4,35,39,,,,,,
GRAMAZIE,11167,11,43.13730608,2.097471158,225,Commune simple,199,AUDE,9,110,38,100,65,15115,44,19,24,0,5,20,0,5,10,5,0,20,20,,,,,,,19,24,43,,,,,,
GRANES,11168,11,42.89593819,2.250898842,445,Commune simple,560,AUDE,4,107,57,107,81,18735,52,10,36,5,0,5,30,5,10,0,9,30,39,,,,,,,16,38,55,,,,,,
GREFFEIL,11169,11,43.07405912,2.394556364,410,Commune simple,1424,AUDE,6,80,0,0,0,0,43,0,29,14,0,10,24,0,5,5,8,24,32,,,,,,,10,35,45,,,,,,
GRUISSAN,11170,11,43.10394121,3.082368144,35,Commune simple,6271,AUDE,502,4873,2753,5148,3839,18462,1540,590,620,330,125,240,295,195,215,470,892,763,1654,1,1,13086,5078,361,141,858,644,1502,1,1,11698,4876,323,136
HOMPS,11172,11,43.26736961,2.721040329,45,Commune simple,310,AUDE,86,591,271,596,416,15529,181,35,108,39,12,30,73,16,28,24,99,128,227,,,,,,,67,118,185,,,,,,
HOUNOUX,11173,11,43.13335373,2.001952162,350,Commune simple,795,AUDE,4,143,52,116,81,15108,41,10,26,5,0,10,15,0,10,5,16,28,45,,,,,,,16,24,40,,,,,,
LES ILHES,11174,11,43.35777667,2.373799806,385,Commune simple,418,AUDE,22,51,0,0,0,0,15,0,10,5,0,5,5,0,0,5,0,8,8,,,,,,,5,10,14,,,,,,
ISSEL,11175,11,43.3675242,1.996982353,226,Commune simple,1823,AUDE,13,491,204,475,324,19688,229,10,198,20,35,65,112,0,15,0,36,136,172,,,,,,,15,212,227,,,,,,
JONQUIERES,11176,11,43.03969668,2.723459284,272,Commune simple,1359,AUDE,3,59,0,0,0,0,10,0,5,5,0,5,0,0,5,0,5,9,14,,,,,,,5,5,10,,,,,,
JOUCOU,11177,11,42.82479887,2.084643653,772,Commune simple,676,AUDE,1,35,0,0,0,0,10,5,0,5,0,0,0,10,0,0,4,4,8,,,,,,,10,0,10,,,,,,
LABASTIDE D'ANJOU,11178,11,43.34681138,1.854376495,189,Commune simple,861,AUDE,74,1253,497,1294,837,18221,589,77,423,89,40,122,295,6,40,83,120,272,392,,,,,,,127,445,572,,,,,,
LABASTIDE EN VAL,11179,11,43.06433624,2.470626758,449,Commune simple,1206,AUDE,2,96,0,0,0,0,65,10,40,15,0,10,30,15,10,0,4,29,33,,,,,,,26,41,66,,,,,,
LABASTIDE ESPARBAIRENQUE,11180,11,43.39366432,2.402742033,715,Commune simple,1713,AUDE,3,85,0,0,0,0,37,4,16,16,0,0,20,0,12,4,13,8,21,,,,,,,16,20,36,,,,,,
LABECEDE LAURAGAIS,11181,11,43.39575162,2.011637093,406,Commune simple,2047,AUDE,8,426,179,411,282,18720,151,5,121,25,20,30,75,0,20,5,57,106,163,,,,,,,26,128,153,,,,,,
LACOMBE,11182,11,43.40655421,2.240863254,755,Commune simple,1554,AUDE,5,164,81,161,117,18258,58,19,34,5,10,15,10,5,10,10,50,21,71,,,,,,,27,31,59,,,,,,
LADERN SUR LAUQUET,11183,11,43.10140379,2.386537216,329,Commune simple,2557,AUDE,12,268,113,251,175,18507,102,20,55,27,5,35,15,0,20,27,41,83,124,,,,,,,46,80,126,,,,,,
LAFAGE,11184,11,43.16680924,1.867499405,335,Commune simple,1296,AUDE,4,87,0,0,0,0,39,0,29,10,0,5,25,0,5,5,12,8,20,,,,,,,10,30,40,,,,,,
LAGRASSE,11185,11,43.0957568,2.604499923,207,Commune simple,3248,AUDE,62,557,217,451,322,16641,221,16,52,153,24,24,12,39,88,35,148,60,208,,,,,,,164,60,224,,,,,,
LAIRIERE,11186,11,43.02383381,2.482474183,485,Commune simple,1352,AUDE,1,44,0,0,0,0,24,5,0,19,0,0,5,0,14,5,4,8,13,,,,,,,18,4,22,,,,,,
LANET,11187,11,42.96622017,2.486152411,467,Commune simple,891,AUDE,0,49,0,0,0,0,10,5,5,0,5,0,0,0,5,0,12,4,16,,,,,,,5,5,10,,,,,,
LA PALME,11188,11,42.96492332,2.994032132,36,Commune simple,3261,AUDE,79,1658,729,1658,1142,19077,522,107,321,94,58,96,190,42,72,55,225,354,579,,,,,,,164,336,499,,,,,,
LAPRADE,11189,11,43.44252911,2.252545492,857,Commune simple,473,AUDE,2,77,0,0,0,0,32,0,24,8,4,8,16,0,0,4,0,36,36,,,,,,,4,28,32,,,,,,
LA REDORTE,11190,11,43.24815629,2.649856564,65,Commune simple,1358,AUDE,116,1118,468,1000,704,16904,323,65,184,74,20,64,105,25,40,69,152,184,336,,,,,,,134,189,323,,,,,,
LAROQUE DE FA,11191,11,42.95108825,2.559315193,546,Commune simple,2084,AUDE,17,142,52,115,80,12883,24,10,10,5,0,5,5,0,15,0,28,28,57,,,,,,,47,12,58,,,,,,
LASBORDES,11192,11,43.29953262,2.062635083,161,Commune simple,1556,AUDE,52,799,299,732,493,17905,273,35,182,55,25,80,95,15,25,30,74,214,288,,,,,,,68,160,228,,,,,,
LASSERRE DE PROUILLE,11193,11,43.18204421,2.085416767,230,Commune simple,437,AUDE,20,243,101,249,166,17004,86,24,62,0,0,34,30,0,20,5,12,89,101,,,,,,,23,59,82,,,,,,
LASTOURS,11194,11,43.32889398,2.376983751,256,Commune simple,285,AUDE,10,161,66,152,103,14372,59,8,35,16,0,28,12,8,12,0,4,40,45,,,,,,,19,39,58,,,,,,
LAURABUC,11195,11,43.26139076,1.995929974,166,Commune simple,844,AUDE,6,404,161,385,261,19319,146,12,117,16,20,40,56,4,20,4,8,130,138,,,,,,,28,116,144,,,,,,
LAURAC,11196,11,43.23083685,1.969300081,296,Commune simple,1214,AUDE,4,172,76,175,120,21143,45,10,25,10,0,15,15,0,5,10,24,28,52,,,,,,,15,30,45,,,,,,
LAURAGUEL,11197,11,43.09651181,2.169723597,202,Commune simple,719,AUDE,38,635,250,619,412,17949,229,61,132,36,35,45,55,0,70,20,38,151,189,,,,,,,93,139,232,,,,,,
LAURE MINERVOIS,11198,11,43.27080287,2.508813343,129,Commune simple,4054,AUDE,67,1080,439,953,674,16199,380,93,210,77,36,60,136,44,56,44,214,210,425,,,,,,,144,231,375,,,,,,
LAVALETTE,11199,11,43.19249997,2.269579157,161,Commune simple,677,AUDE,29,1467,573,1446,956,20589,682,83,552,46,66,196,304,25,32,53,84,512,595,1,,6604,,177,,110,553,662,1,,6718,,180,
LESPINASSIERE,11200,11,43.4092125,2.548880689,717,Commune simple,1668,AUDE,5,128,61,114,85,13540,44,15,5,25,0,0,10,10,20,5,21,11,32,,,,,,,34,10,43,,,,,,
LEUC,11201,11,43.14104953,2.340811174,197,Commune simple,1174,AUDE,44,807,334,814,543,20147,379,44,310,25,60,113,158,10,30,10,47,218,265,1,,3678,,88,,48,324,372,1,,5206,,125,
LEUCATE,11202,11,42.89878654,3.026229845,9,Commune simple,4825,AUDE,490,4402,2550,4512,3452,18953,1344,475,362,507,125,132,267,143,306,375,716,508,1224,1,,8344,,128,,831,527,1358,1,,11696,,179,
LEZIGNAN CORBIERES,11203,11,43.2040727,2.762346709,57,Commune simple,3815,AUDE,1820,11248,4412,9949,6847,16340,3311,1498,1162,650,181,387,731,248,578,1188,1876,1036,2912,2,5,33142,28982,590,554,1977,1232,3209,2,5,35480,23384,640,520
LIGNAIROLLES,11204,11,43.09525529,1.999152138,386,Commune simple,752,AUDE,0,38,0,0,0,0,5,0,5,0,0,0,5,0,0,0,4,8,12,,,,,,,0,5,5,,,,,,
LIMOUSIS,11205,11,43.32638076,2.404284725,319,Commune simple,1030,AUDE,13,119,52,124,84,14559,62,10,53,0,5,20,29,0,10,0,16,24,40,,,,,,,9,51,60,,,,,,
LIMOUX,11206,11,43.04934555,2.240871377,260,Sous-préfecture,3252,AUDE,1813,10275,4478,9326,6647,17825,3272,1653,913,706,116,296,575,331,680,1276,2497,861,3359,1,6,17802,24798,372,629,2276,1027,3303,1,5,19916,20562,416,533
LOUPIA,11207,11,43.062057,2.12435042,268,Commune simple,467,AUDE,7,242,112,240,168,19019,111,10,91,10,10,40,40,5,10,5,21,76,97,,,,,,,16,89,105,,,,,,
LA LOUVIERE LAURAGAIS,11208,11,43.26673387,1.750830399,292,Commune simple,622,AUDE,3,79,0,0,0,0,30,5,15,10,5,10,5,0,10,0,4,21,25,,,,,,,10,20,30,,,,,,
LUC SUR AUDE,11209,11,42.96448359,2.281731702,394,Commune simple,802,AUDE,54,220,102,243,164,18000,79,0,70,9,14,25,37,0,5,0,17,75,91,,,,,,,29,33,63,,,,,,
LUC SUR ORBIEU,11210,11,43.17563591,2.788012663,48,Commune simple,986,AUDE,45,1135,480,1157,779,17298,422,74,298,50,50,85,175,20,60,35,96,255,351,1,,1224,,39,,107,291,398,2,,6202,,149,
MAGRIE,11211,11,43.02500905,2.204820405,294,Commune simple,1030,AUDE,6,523,234,529,368,19122,200,10,185,5,20,55,110,0,10,5,56,165,221,1,,1232,,38,,15,183,198,1,,1418,,44,
MAILHAC,11212,11,43.30735129,2.83030801,100,Commune simple,1058,AUDE,11,530,230,536,364,17028,225,30,155,40,30,70,65,5,30,25,58,115,173,,,,,,,58,159,217,,,,,,
MAISONS,11213,11,42.92959474,2.640628535,430,Commune simple,1231,AUDE,2,41,0,0,0,0,4,0,4,0,0,0,4,0,0,0,0,4,4,,,,,,,0,4,4,,,,,,
MALRAS,11214,11,43.06085275,2.167519399,231,Commune simple,440,AUDE,40,367,165,383,264,18111,145,20,117,8,4,24,92,0,8,16,52,121,173,,,,,,,24,119,143,,,,,,
MALVES EN MINERVOIS,11215,11,43.25061001,2.452816404,146,Commune simple,508,AUDE,75,841,356,863,581,19371,287,45,203,40,20,80,115,5,25,45,94,205,299,1,,3474,,92,,82,221,303,1,,3802,,101,
MALVIES,11216,11,43.11737019,2.1848333,203,Commune simple,744,AUDE,15,378,167,371,257,18759,137,36,81,20,25,30,40,5,15,20,26,120,146,,,,,,,51,89,140,,,,,,
MARCORIGNAN,11217,11,43.22612567,2.914065782,29,Commune simple,574,AUDE,40,1252,540,1270,866,19266,543,79,409,54,58,159,225,16,38,45,113,368,480,1,,8288,,198,,99,438,537,1,,9220,,220,
MARQUEIN,11218,11,43.29875381,1.723468233,250,Commune simple,569,AUDE,5,77,0,0,0,0,37,0,37,0,8,20,8,0,0,0,12,12,24,,,,,,,0,36,36,,,,,,
MARSA,11219,11,42.81991867,2.139593074,787,Commune simple,1993,AUDE,1,24,0,0,0,0,12,0,0,12,0,0,0,0,12,0,4,8,12,,,,,,,0,8,8,,,,,,
MARSEILLETTE,11220,11,43.21170065,2.548428341,69,Commune simple,1117,AUDE,41,715,312,663,467,18338,309,55,209,45,45,80,100,20,25,40,64,196,260,,,,,,,85,225,310,,,,,,
LES MARTYS,11221,11,43.42191631,2.310406807,795,Commune simple,1948,AUDE,9,271,114,265,180,17237,85,9,66,9,19,14,39,5,5,5,20,89,109,,,,,,,32,40,72,,,,,,
MAS CABARDES,11222,11,43.40006869,2.357168442,711,Commune simple,935,AUDE,6,186,91,192,136,16121,60,0,35,25,5,15,20,5,5,10,16,48,64,,,,,,,20,40,60,,,,,,
MAS DES COURS,11223,11,43.13165501,2.427171003,361,Commune simple,749,AUDE,1,25,0,0,0,0,10,0,10,0,0,5,5,0,0,0,0,11,11,,,,,,,0,10,10,,,,,,
MASSAC,11224,11,42.91627822,2.558740818,605,Commune simple,1234,AUDE,1,30,0,0,0,0,0,0,0,0,0,0,0,0,0,0,0,4,4,,,,,,,0,0,0,,,,,,
MAS SAINTES PUELLES,11225,11,43.31428831,1.877047398,220,Commune simple,2902,AUDE,50,907,356,914,600,19932,328,45,244,40,55,90,115,30,35,5,95,316,411,1,,4168,,68,,69,257,327,1,,2352,,38,
MAYREVILLE,11226,11,43.22998185,1.847475116,318,Commune simple,828,AUDE,3,74,0,0,0,0,20,10,5,5,0,0,5,0,15,0,23,8,31,,,,,,,15,5,20,,,,,,
MAYRONNES,11227,11,43.04717076,2.53095853,391,Commune simple,1221,AUDE,2,33,0,0,0,0,20,10,5,5,0,5,0,5,10,0,16,0,16,,,,,,,15,5,20,,,,,,
MAZEROLLES DU RAZES,11228,11,43.13612292,2.065217227,254,Commune simple,858,AUDE,7,180,77,159,114,15269,83,17,56,11,6,24,29,12,12,6,24,20,44,,,,,,,20,32,52,,,,,,
MAZUBY,11229,11,42.78873519,2.033627741,1221,Commune simple,884,AUDE,1,25,0,0,0,0,4,0,4,0,0,4,0,0,0,0,0,0,0,,,,,,,0,4,4,,,,,,
MERIAL,11230,11,42.77070954,1.96356595,1461,Commune simple,1668,AUDE,2,30,0,0,0,0,8,0,8,0,0,0,8,0,0,0,12,8,20,,,,,,,0,8,8,,,,,,
MEZERVILLE,11231,11,43.25073087,1.784530891,301,Commune simple,767,AUDE,3,91,0,0,0,0,60,10,35,15,10,20,15,0,10,5,13,17,30,,,,,,,14,43,57,,,,,,
MIRAVAL CABARDES,11232,11,43.38026652,2.339534173,568,Commune simple,1256,AUDE,2,36,0,0,0,0,4,0,0,4,0,0,4,0,0,0,0,12,12,,,,,,,0,0,0,,,,,,
MIREPEISSET,11233,11,43.28442329,2.897011156,39,Commune simple,530,AUDE,38,754,309,765,511,18258,285,40,210,35,40,45,130,5,25,40,76,251,327,,,,,,,71,219,290,,,,,,
MIREVAL LAURAGAIS,11234,11,43.26416191,1.968346009,205,Commune simple,1067,AUDE,15,155,72,165,114,19483,64,8,48,8,12,16,20,0,12,4,0,86,86,,,,,,,16,48,64,,,,,,
MISSEGRE,11235,11,43.00316381,2.373666981,670,Commune simple,748,AUDE,5,65,0,0,0,0,20,8,0,12,0,0,0,0,16,4,16,4,20,,,,,,,19,0,19,,,,,,
MOLANDIER,11236,11,43.25229338,1.723516965,279,Commune simple,2064,AUDE,4,235,101,228,160,20453,105,5,80,20,20,30,40,0,10,5,19,66,86,,,,,,,15,89,104,,,,,,
MOLLEVILLE,11238,11,43.31265658,1.834612595,256,Commune simple,359,AUDE,2,114,47,125,81,20057,53,0,40,13,12,21,16,0,0,0,12,41,53,,,,,,,0,51,51,,,,,,
MONTAURIOL,11239,11,43.27457556,1.831731993,270,Commune simple,835,AUDE,5,85,0,0,0,0,46,0,31,15,5,5,20,0,15,0,0,19,19,,,,,,,31,31,61,,,,,,
MONTAZELS,11240,11,42.95263791,2.245186091,287,Commune simple,444,AUDE,19,587,265,573,400,18732,186,10,160,15,25,61,81,10,5,0,33,132,166,,,,,,,69,151,220,,,,,,
MONTBRUN DES CORBIERES,11241,11,43.20159569,2.680883793,108,Commune simple,1067,AUDE,21,312,128,286,198,16898,135,35,70,30,5,30,50,0,20,30,48,80,128,,,,,,,51,86,137,,,,,,
MONTCLAR,11242,11,43.13737772,2.241887127,269,Commune simple,1163,AUDE,10,172,75,164,115,16462,56,16,28,12,0,8,20,8,4,16,8,52,60,,,,,,,29,29,58,,,,,,
MONTFERRAND,11243,11,43.36857617,1.828165323,224,Commune simple,1789,AUDE,40,533,206,525,346,20001,270,46,194,31,25,70,105,5,25,35,72,160,232,,,,,,,65,200,265,,,,,,
MONTFORT SUR BOULZANE,11244,11,42.73001053,2.308657986,1115,Commune simple,3412,AUDE,2,68,0,0,0,0,34,9,13,13,0,8,4,13,8,0,24,8,32,,,,,,,23,11,34,,,,,,
MONTGAILLARD,11245,11,42.90489428,2.628450472,487,Commune simple,1686,AUDE,2,47,0,0,0,0,4,0,0,4,0,0,0,0,0,4,12,0,12,,,,,,,4,0,4,,,,,,
MONTGRADAIL,11246,11,43.12281324,2.032601829,284,Commune simple,447,AUDE,2,60,0,0,0,0,30,0,6,24,0,0,6,0,18,6,12,8,19,,,,,,,28,4,32,,,,,,
MONTHAUT,11247,11,43.08225499,2.059765521,425,Commune simple,704,AUDE,1,39,0,0,0,0,36,0,20,16,8,0,12,0,16,0,12,16,29,,,,,,,16,20,36,,,,,,
MONTIRAT,11248,11,43.16811916,2.431798549,208,Commune simple,1313,AUDE,5,75,0,0,0,0,41,0,41,0,15,10,15,0,0,0,8,28,36,,,,,,,0,40,40,,,,,,
MONTJARDIN,11249,11,42.97980466,2.051180697,566,Commune simple,1456,AUDE,1,90,0,0,0,0,45,10,35,0,0,0,35,0,10,0,12,28,40,,,,,,,10,35,45,,,,,,
MONTJOI,11250,11,42.99610549,2.479261724,445,Commune simple,741,AUDE,1,41,0,0,0,0,11,5,5,0,0,5,0,5,0,0,0,8,8,,,,,,,0,20,20,,,,,,
MONTLAUR,11251,11,43.12842407,2.564093678,285,Commune simple,3513,AUDE,25,515,259,548,391,15666,180,47,95,38,15,54,44,24,33,14,73,126,199,,,,,,,108,136,244,,,,,,
MONTMAUR,11252,11,43.40048261,1.846086502,245,Commune simple,1323,AUDE,8,320,131,337,222,21048,173,25,122,25,30,60,50,5,5,20,36,104,140,,,,,,,31,145,176,,,,,,
MONTOLIEU,11253,11,43.31369581,2.214992882,251,Commune simple,2472,AUDE,64,861,360,744,534,18545,274,76,105,93,20,36,56,36,80,44,118,126,243,,,,,,,161,113,274,,,,,,
MONTREAL,11254,11,43.20000666,2.147838712,205,Commune simple,5644,AUDE,180,1920,792,1878,1268,18264,634,106,418,111,85,175,180,20,90,80,276,487,764,1,,9106,,169,,193,446,639,1,,5256,,98,
MONTREDON DES CORBIERES,11255,11,43.18206655,2.924002191,74,Commune simple,1737,AUDE,454,1457,580,1447,955,19140,529,106,378,45,50,140,195,20,65,55,137,363,500,1,1,5416,4780,133,122,142,390,532,1,1,5984,4822,147,123
MONTSERET,11256,11,43.10455768,2.80748263,92,Commune simple,1141,AUDE,28,554,230,519,357,18520,205,37,119,50,36,48,36,12,32,37,54,120,174,,,,,,,81,122,203,,,,,,
MONZE,11257,11,43.1531268,2.466627246,252,Commune simple,1463,AUDE,7,216,99,227,155,17234,88,10,68,10,0,30,40,5,10,5,18,62,81,,,,,,,19,66,85,,,,,,
MOUSSAN,11258,11,43.23091014,2.956052881,36,Commune simple,1504,AUDE,49,1838,754,1878,1247,19142,703,124,483,97,96,183,236,57,71,60,146,594,740,1,,10996,,255,,190,520,710,1,,11196,,260,
MOUSSOULENS,11259,11,43.279996,2.237791895,181,Commune simple,1957,AUDE,21,1013,408,1000,669,19047,418,74,290,54,15,124,160,15,35,69,72,328,400,1,,5058,,119,,119,299,418,1,,5196,,123,
MOUTHOUMET,11260,11,42.96367129,2.531167863,548,Commune simple,1399,AUDE,16,119,52,98,73,12134,5,0,5,0,0,0,5,0,0,0,18,4,22,,,,,,,0,6,6,,,,,,
MOUX,11261,11,43.1731984,2.645962157,155,Commune simple,1608,AUDE,23,691,300,685,472,17016,317,64,218,35,25,80,120,25,65,5,57,159,215,,,,,,,62,148,209,,,,,,
NARBONNE,11262,11,43.16518538,3.019671055,52,Sous-préfecture,17494,AUDE,8815,52855,25013,50859,36444,17357,17760,10154,3119,4487,731,1258,1745,2539,4420,7059,14310,3432,17742,10,34,146100,404606,2322,8846,13991,3673,17664,10,32,159794,402200,2552,8772
NEBIAS,11263,11,42.88987772,2.105831271,702,Commune simple,1299,AUDE,11,244,104,206,153,15541,64,10,45,10,10,25,15,5,5,5,16,40,56,,,,,,,15,50,65,,,,,,
NEVIAN,11264,11,43.20425915,2.885492185,55,Commune simple,1437,AUDE,68,1270,540,1336,895,18777,575,98,403,74,90,134,238,20,60,40,141,414,555,1,,7488,,161,,171,370,541,1,,6628,,142,
NIORT DE SAULT,11265,11,42.78436126,1.998687176,1326,Commune simple,2208,AUDE,1,18,0,0,0,0,7,0,7,0,0,4,4,0,0,0,12,4,16,,,,,,,4,4,7,,,,,,
PORT LA NOUVELLE,11266,11,43.0216547,3.038281551,25,Commune simple,3734,AUDE,611,5635,2795,5616,4061,16972,1545,630,490,425,85,160,330,160,265,545,1077,566,1643,2,2,12104,12588,261,247,971,576,1547,2,2,14860,14076,308,275
ORNAISONS,11267,11,43.17688535,2.835428465,46,Commune simple,1082,AUDE,89,1187,514,1162,804,18093,418,116,181,121,30,30,139,35,70,110,148,312,460,,,,,,,215,199,414,,,,,,
ORSANS,11268,11,43.15519873,1.978094225,342,Commune simple,1033,AUDE,7,93,0,0,0,0,32,14,14,5,0,5,10,0,5,14,16,32,48,,,,,,,16,16,31,,,,,,
OUVEILLAN,11269,11,43.29281268,2.97036011,24,Commune simple,3017,AUDE,109,2299,975,2226,1528,17819,805,185,495,125,56,180,292,64,124,84,223,548,771,1,,11136,,293,,275,533,808,1,,9500,,250,
PADERN,11270,11,42.8696208,2.651208818,370,Commune simple,3018,AUDE,2,122,65,97,80,17070,24,8,12,4,0,4,8,8,0,4,12,8,20,,,,,,,12,12,23,,,,,,
PALAIRAC,11271,11,42.95782447,2.658032446,436,Commune simple,1843,AUDE,1,32,0,0,0,0,9,5,5,0,0,0,5,0,0,5,0,8,8,,,,,,,5,5,10,,,,,,
PALAJA,11272,11,43.16709803,2.387041368,225,Commune simple,1498,AUDE,70,2233,911,2368,1563,21910,1045,132,834,79,193,295,395,50,45,74,145,874,1019,1,,13172,,324,,164,861,1025,1,,13058,,321,
PARAZA,11273,11,43.25988316,2.815627317,63,Commune simple,956,AUDE,28,632,266,624,425,17622,180,25,140,15,25,45,75,15,15,5,67,106,173,,,,,,,36,148,184,,,,,,
PAULIGNE,11274,11,43.07505163,2.14677977,249,Commune simple,635,AUDE,27,339,151,375,252,19413,179,29,140,10,25,39,83,0,15,19,57,90,148,,,,,,,57,98,155,,,,,,
PAYRA SUR L'HERS,11275,11,43.26234052,1.875025247,283,Commune simple,2532,AUDE,10,188,78,179,123,17478,95,14,57,24,5,15,39,5,28,5,21,37,58,,,,,,,28,56,84,,,,,,
PAZIOLS,11276,11,42.8543921,2.715355941,223,Commune simple,2836,AUDE,24,532,212,422,305,15821,175,40,80,55,25,30,40,20,35,25,68,91,159,,,,,,,79,94,173,,,,,,
PECHARIC ET LE PY,11277,11,43.19380167,1.82700789,296,Commune simple,594,AUDE,1,28,0,0,0,0,0,0,0,0,0,0,0,0,0,0,0,0,0,,,,,,,0,0,0,,,,,,
PECH LUNA,11278,11,43.21113714,1.837092215,317,Commune simple,680,AUDE,3,93,0,0,0,0,22,0,11,11,0,12,6,0,6,0,12,19,31,,,,,,,6,18,24,,,,,,
PENNAUTIER,11279,11,43.25121994,2.31421685,130,Commune simple,1854,AUDE,215,2472,954,2322,1564,19770,907,164,565,179,100,184,313,60,120,135,321,684,1005,1,1,6576,1502,224,46,310,589,899,1,1,5286,1878,180,57
PEPIEUX,11280,11,43.29685221,2.68707559,75,Commune simple,1029,AUDE,75,1050,449,971,682,16678,345,107,168,70,24,20,134,16,81,64,141,193,334,,,,,,,165,181,346,,,,,,
PEXIORA,11281,11,43.26919195,2.039174649,141,Commune simple,1367,AUDE,60,1277,485,1255,812,17068,412,46,300,66,20,127,172,10,45,35,102,380,482,1,,3212,,61,,93,326,419,1,,3610,,68,
PEYREFITTE DU RAZES,11282,11,43.05886116,2.022850462,431,Commune simple,698,AUDE,1,41,0,0,0,0,9,0,9,0,0,4,4,0,0,0,0,9,9,,,,,,,4,4,8,,,,,,
PEYREFITTE SUR L'HERS,11283,11,43.24577434,1.817624433,289,Commune simple,667,AUDE,1,75,0,0,0,0,25,0,25,0,0,25,0,0,0,0,8,8,17,,,,,,,8,16,25,,,,,,
PEYRENS,11284,11,43.36226392,1.959870554,179,Commune simple,497,AUDE,31,494,186,499,321,18040,200,10,155,35,10,55,105,5,5,20,24,139,162,,,,,,,30,168,197,,,,,,
PEYRIAC DE MER,11285,11,43.08976065,2.948831498,60,Commune simple,3548,AUDE,55,1111,497,1113,770,19496,426,141,210,75,40,65,130,20,105,65,148,244,392,1,,3622,,81,,190,235,425,1,,3156,,71,
PEYRIAC MINERVOIS,11286,11,43.29356527,2.565854219,136,Commune simple,1022,AUDE,85,1136,469,1044,725,17408,351,97,180,73,35,49,114,0,98,60,186,219,405,,,,,,,188,180,368,,,,,,
PEYROLLES,11287,11,42.9637348,2.339377034,462,Commune simple,1497,AUDE,2,85,0,0,0,0,40,5,15,20,0,10,5,10,15,0,15,34,49,,,,,,,24,15,39,,,,,,
PEZENS,11288,11,43.25468267,2.249631488,116,Commune simple,1127,AUDE,84,1453,633,1511,1012,18082,542,64,411,68,66,113,258,8,39,54,87,392,479,1,,4944,,118,,101,436,536,1,,5952,,142,
PIEUSSE,11289,11,43.08306314,2.253884895,227,Commune simple,1339,AUDE,39,1016,411,996,676,18389,364,51,281,32,16,100,180,8,16,44,66,268,333,1,,2140,,68,,68,297,365,1,,2278,,73,
PLAIGNE,11290,11,43.17105568,1.807065081,294,Commune simple,1370,AUDE,15,112,52,110,78,16673,39,5,10,25,0,5,5,0,30,0,21,21,43,,,,,,,29,10,39,,,,,,
PLAVILLA,11291,11,43.14169329,1.906378749,377,Commune simple,1273,AUDE,6,120,0,0,0,0,57,5,52,0,11,25,15,5,0,0,55,15,71,,,,,,,6,54,60,,,,,,
LA POMAREDE,11292,11,43.40665345,1.945234962,243,Commune simple,1342,AUDE,18,153,65,145,101,19958,60,15,35,10,5,25,10,5,15,0,24,56,80,,,,,,,21,41,62,,,,,,
POMAS,11293,11,43.10770085,2.280743875,201,Commune simple,1064,AUDE,65,869,339,858,566,19084,395,79,271,44,30,95,160,10,40,65,81,256,337,2,,5494,,128,,79,263,342,1,,3218,,63,
POMY,11294,11,43.06069118,2.05873364,421,Commune simple,611,AUDE,2,58,0,0,0,0,5,0,0,5,0,0,5,0,0,0,11,4,14,,,,,,,0,5,5,,,,,,
PORTEL DES CORBIERES,11295,11,43.05220797,2.905779989,110,Commune simple,3499,AUDE,149,1292,530,1290,863,17329,475,108,333,34,45,153,148,10,49,75,200,300,500,1,,4280,,97,,129,336,465,1,,6784,,154,
POUZOLS MINERVOIS,11296,11,43.28474015,2.811096169,106,Commune simple,1023,AUDE,13,512,217,485,335,17141,178,35,133,10,10,50,75,0,30,15,36,122,159,,,,,,,44,132,176,,,,,,
PRADELLES CABARDES,11297,11,43.41212075,2.438847899,892,Commune simple,2138,AUDE,16,150,64,126,93,19393,20,0,15,5,5,0,10,5,0,0,28,36,64,,,,,,,5,16,21,,,,,,
PRADELLES EN VAL,11298,11,43.14454121,2.515523998,296,Commune simple,1665,AUDE,6,188,81,168,121,18852,60,10,50,0,5,30,15,0,5,5,12,55,67,,,,,,,10,52,62,,,,,,
PREIXAN,11299,11,43.14376811,2.280493607,201,Commune simple,857,AUDE,28,604,264,617,419,19614,225,45,165,15,15,65,100,20,25,0,94,134,228,,,,,,,45,178,223,,,,,,
PUGINIER,11300,11,43.38240015,1.926158705,196,Commune simple,693,AUDE,8,162,65,147,102,20430,73,0,73,0,0,25,45,0,0,0,12,51,63,,,,,,,13,97,109,,,,,,
PUICHERIC,11301,11,43.2293432,2.612498271,61,Commune simple,1390,AUDE,97,1154,495,1153,784,15627,421,112,225,84,25,74,174,30,69,55,157,198,355,,,,,,,177,213,390,,,,,,
PUILAURENS,11302,11,42.81321435,2.29821564,770,Commune simple,3384,AUDE,12,263,119,254,180,16034,108,25,69,15,15,15,45,10,20,5,57,73,130,,,,,,,48,56,103,,,,,,
PUIVERT,11303,11,42.90878283,2.060037998,608,Commune simple,4280,AUDE,24,523,228,481,344,15842,168,40,80,48,12,12,56,20,52,16,65,77,143,,,,,,,88,80,169,,,,,,
QUILLAN,11304,11,42.8846152,2.174122214,446,Commune simple,2195,AUDE,421,3384,1584,3053,2257,16714,959,452,208,300,20,55,145,80,178,477,799,215,1015,,,,,,,747,225,973,,,,,,
QUINTILLAN,11305,11,42.95978676,2.702917087,352,Commune simple,1651,AUDE,1,69,0,0,0,0,42,18,24,0,6,0,18,0,18,0,9,13,21,,,,,,,25,0,25,,,,,,
QUIRBAJOU,11306,11,42.83626409,2.168726159,908,Commune simple,1406,AUDE,3,47,0,0,0,0,23,4,12,8,4,0,8,0,4,8,4,4,8,,,,,,,12,12,24,,,,,,
RAISSAC D'AUDE,11307,11,43.22876704,2.876691782,20,Commune simple,636,AUDE,8,242,107,229,164,16926,95,14,57,24,10,43,9,10,14,10,24,71,94,,,,,,,8,57,65,,,,,,
RAISSAC SUR LAMPY,11308,11,43.27712479,2.161344027,157,Commune simple,542,AUDE,17,440,160,419,268,19663,203,5,178,20,20,55,105,0,0,20,12,128,140,,,,,,,20,180,200,,,,,,
RENNES LE CHATEAU,11309,11,42.91378244,2.273730183,442,Commune simple,1503,AUDE,18,64,0,0,0,0,32,0,9,23,0,15,0,5,15,0,32,0,32,,,,,,,17,12,29,,,,,,
RENNES LES BAINS,11310,11,42.92424634,2.339889615,552,Commune simple,1928,AUDE,28,261,81,141,107,13262,57,31,6,19,0,0,6,6,31,12,36,44,80,,,,,,,28,40,69,,,,,,
RIBAUTE,11311,11,43.10729471,2.64081699,154,Commune simple,951,AUDE,39,285,107,216,156,17923,80,25,40,15,20,10,10,20,15,5,46,46,91,,,,,,,41,41,82,,,,,,
RIBOUISSE,11312,11,43.17035154,1.904289194,331,Commune simple,1054,AUDE,4,110,0,0,0,0,45,0,35,10,0,0,40,5,0,0,16,24,40,,,,,,,0,46,46,,,,,,
RICAUD,11313,11,43.34731267,1.89685273,182,Commune simple,620,AUDE,11,303,124,306,204,20871,126,5,111,10,40,40,30,5,5,5,8,131,138,,,,,,,15,112,127,,,,,,
